~Version Information
#----------------------------------------------------------------
VERS.             1.20: CWLS log ASCII Standard - VERSION 1.20
WRAP.              NO : One line per depth step
~Well Information
#----------------------------------------------------------------
#MNEM.UNIT             DATA TYPE           INFORMATION
#---------     -------------------------- -----------------------
STRT .M                             3088 : Start depth
STOP .M                        3450.8000 : Stop depth
STEP .M                           0.1000 : Step
NULL .                             -9999 : Null value
COMP .                           COMPANI : 
WELL .                              WELL :
FLD  .                             FIELD : 
CNTY .                            COUNTY : 
STAT .                             STATE : 
DATE .                              DATE : 
SRVC .                   SERVICE COMPANY : 
UWI  .                               UWI : 
~Curve Information
#----------------------------------------------------------------
#MNEM.UNIT              API CODE           CURVE DESCRIPTION
#---------     -------------------------- -----------------------
DEPT .M                                  : 1  DEPTH
DS   .m                                  : BOREHOLE DIAMETER
DT   .                                   : ACOUSTIC dT
GK   .                                   : GAMMA RAYS
MGZ  .                                   : 
MPZ  .Ohmm                               : MICRO POTENTIAL LOG BORE
NGK  .                                   : 
PS   .                                   : SELF POLARIZATION
PZ   .Ohmm                               : POTENTIAL RESISTIVITY BORE
~Parameter Information
#----------------------------------------------------------------
#MNEM.UNIT               VALUE             PARAMETER DESCRIPTION
#---------     -------------------------- -----------------------
EKB  .M                                0 : Elevation,Kelly Bushing
TDL  .M                            -9999 : Total Depth-Logger
RMF  .OHMM                         -9999 : Mud Filtrate Resistivity
MFST .DEGC                         -9999 : Mud Filtrate Sample Temperature
BS   .MM                           -9999 : Bit Size
BHT  .DEGC                         -9999 : Bottom Hole Temp.(Max Temp)
AVST .DEGC                         -9999 : Average Surface Temperature
DFD  .G/S3                         -9999 : Drilling Fluid Density
~Other Information
#----------------------------------------------------------------

#----------------------------------------------------------------
#    Depth        DS        DT        GK       MGZ       MPZ       NGK        PS        PZ
~ASCII Log Data
# ...
 3325.6000     0.134   227.707     4.432     1.073      3.17     2.202    74.211      8.35
 3325.7000     0.134   227.957     4.603     0.986      4.34     2.202    74.856      8.38
 3325.8000     0.135   228.207     4.774     0.900      5.51     2.203    75.501      8.40
 3325.9000     0.136   229.100     4.809     0.783      4.57     2.191    76.186      8.40
 3326.0000     0.136   229.993     4.843     0.667      3.63     2.179    76.871      8.41
 3326.1000     0.137   231.285     4.766     0.660      2.86     2.160    78.165      8.36
 3326.2000     0.137   232.578     4.688     0.654      2.09     2.141    79.460      8.31
 3326.3000     0.137   233.948     4.639     0.661      2.07     2.125    81.480      8.15
 3326.4000     0.138   235.317     4.590     0.668      2.04     2.108    83.501      7.98
 3326.5000     0.139   236.757     4.556     0.601      2.56     2.102    85.318      7.79
 3326.6000     0.140   238.197     4.523     0.534      3.08     2.095    87.135      7.60
 3326.7000     0.139   238.928     4.399     0.497      2.51     2.101    88.359      7.47
 3326.8000     0.138   239.658     4.275     0.460      1.94     2.106    89.582      7.33
 3326.9000     0.137   239.484     4.128     0.469      1.51     2.115    89.816      7.31
 3327.0000     0.136   239.310     3.981     0.477      1.08     2.125    90.050      7.28
 3327.1000     0.136   238.904     3.947     0.528      1.11     2.128    89.507      7.37
 3327.2000     0.136   238.499     3.913     0.580      1.13     2.132    88.965      7.46
 3327.3000     0.136   237.190     3.962     0.669      1.32     2.132    88.316      7.57
 3327.4000     0.136   235.882     4.010     0.759      1.51     2.132    87.667      7.68
 3327.5000     0.136   233.707     4.090     0.840      2.05     2.135    86.962      7.82
 3327.6000     0.136   231.531     4.171     0.921      2.60     2.139    86.257      7.97
 3327.7000     0.137   229.641     4.224     0.900      3.20     2.150    85.855      8.13
 3327.8000     0.137   227.750     4.278     0.879      3.81     2.162    85.453      8.28
 3327.9000     0.137   226.676     4.224     0.842      3.59     2.170    85.502      8.37
 3328.0000     0.138   225.601     4.171     0.805      3.36     2.179    85.551      8.46
 3328.1000     0.138   225.094     4.139     0.794      3.43     2.186    86.297      8.50
 3328.2000     0.138   224.588     4.106     0.784      3.51     2.193    87.043      8.54
 3328.3000     0.137   224.610     4.142     0.783      3.55     2.201    88.383      8.57
 3328.4000     0.137   224.632     4.178     0.783      3.60     2.210    89.723      8.61
 3328.5000     0.137   225.385     4.189     0.778      2.73     2.207    91.083      8.64
 3328.6000     0.137   226.139     4.201     0.774      1.87     2.204    92.444      8.67
 3328.7000     0.137   227.092     4.168     0.716      2.35     2.197    93.729      8.63
 3328.8000     0.136   228.046     4.134     0.658      2.82     2.191    95.015      8.59
 3328.9000     0.136   228.866     4.065     0.631      2.20     2.191    95.942      8.53
 3329.0000     0.136   229.685     3.996     0.604      1.59     2.190    96.869      8.48
 3329.1000     0.136   230.323     3.946     0.604      1.42     2.197    97.232      8.40
 3329.2000     0.136   230.961     3.896     0.604      1.25     2.205    97.595      8.31
 3329.3000     0.136   231.238     3.921     0.604      1.31     2.215    97.764      8.23
 3329.4000     0.135   231.514     3.946     0.604      1.36     2.226    97.934      8.15
 3329.5000     0.134   231.514     4.003     0.604      1.35     2.232    98.209      8.15
 3329.6000     0.134   231.514     4.061     0.604      1.34     2.238    98.484      8.15
 3329.7000     0.134   231.543     4.082     0.572      1.29     2.241    98.803      8.15
 3329.8000     0.134   231.571     4.104     0.541      1.23     2.244    99.121      8.15
 3329.9000     0.134   231.190     4.088     0.509      1.16     2.233    99.449      8.20
 3330.0000     0.134   230.810     4.071     0.477      1.10     2.221    99.776      8.25
 3330.1000     0.134   231.203     4.050     0.477      1.13     2.207   100.139      8.36
 3330.2000     0.134   231.597     4.030     0.477      1.15     2.194   100.503      8.48
 3330.3000     0.134   233.206     4.066     0.512      1.11     2.196   101.317      8.56
 3330.4000     0.134   234.815     4.102     0.546      1.07     2.198   102.131      8.63
 3330.5000     0.134   236.430     4.173     0.597      1.11     2.207   103.085      8.65
 3330.6000     0.134   238.045     4.244     0.648      1.14     2.215   104.039      8.67
 3330.7000     0.134   239.876     4.297     0.671      1.31     2.220   105.023      8.68
 3330.8000     0.134   241.708     4.349     0.694      1.47     2.226   106.007      8.69
 3330.9000     0.134   243.872     4.372     0.674      1.72     2.227   107.442      8.70
 3331.0000     0.134   246.036     4.394     0.655      1.97     2.228   108.877      8.71
 3331.1000     0.134   248.345     4.401     0.596      1.97     2.219   110.794      8.57
 3331.2000     0.134   250.654     4.408     0.538      1.96     2.209   112.712      8.42
 3331.3000     0.134   253.015     4.351     0.507      1.50     2.188   115.451      8.13
 3331.4000     0.135   255.376     4.294     0.477      1.05     2.168   118.189      7.84
 3331.5000     0.135   257.410     4.128     0.518      1.10     2.144   121.339      7.53
 3331.6000     0.135   259.444     3.962     0.559      1.14     2.120   124.488      7.23
 3331.7000     0.134   260.284     3.748     0.592      1.19     2.104   127.472      6.91
 3331.8000     0.134   261.125     3.534     0.624      1.24     2.088   130.456      6.59
 3331.9000     0.134   261.125     3.365     0.586      1.24     2.080   132.906      6.27
 3332.0000     0.134   261.125     3.197     0.548      1.24     2.071   135.357      5.95
 3332.1000     0.134   260.868     3.116     0.547      1.32     2.066   137.106      5.64
 3332.2000     0.134   260.612     3.035     0.546      1.40     2.061   138.855      5.33
 3332.3000     0.135   259.704     3.038     0.575      1.12     2.052   140.068      5.11
 3332.4000     0.136   258.796     3.041     0.604      0.83     2.043   141.281      4.89
 3332.5000     0.138   257.200     3.089     0.599      0.82     2.028   142.273      4.76
 3332.6000     0.140   255.604     3.136     0.593      0.81     2.013   143.266      4.63
 3332.7000     0.141   253.670     3.135     0.561      0.81     2.007   144.431      4.53
 3332.8000     0.141   251.736     3.135     0.529      0.80     2.000   145.596      4.42
 3332.9000     0.141   249.895     3.123     0.503      0.80     2.006   146.493      4.35
 3333.0000     0.140   248.055     3.111     0.477      0.79     2.012   147.390      4.27
 3333.1000     0.141   247.806     3.227     0.458      0.88     2.021   146.949      4.28
 3333.2000     0.141   247.557     3.343     0.439      0.98     2.029   146.507      4.30
 3333.3000     0.139   248.707     3.583     0.429      0.98     2.033   144.020      4.44
 3333.4000     0.138   249.857     3.823     0.419      0.98     2.036   141.533      4.57
 3333.5000     0.137   251.814     4.095     0.459      0.90     2.031   137.572      4.82
 3333.6000     0.135   253.771     4.366     0.499      0.82     2.026   133.611      5.08
 3333.7000     0.135   256.459     4.631     0.572      1.10     2.022   129.402      5.44
 3333.8000     0.135   259.147     4.896     0.646      1.37     2.018   125.194      5.80
 3333.9000     0.136   260.911     5.161     0.689      1.59     2.010   121.402      6.25
 3334.0000     0.137   262.676     5.425     0.731      1.80     2.003   117.609      6.70
 3334.1000     0.139   262.542     5.708     0.775      1.38     1.991   114.197      7.18
 3334.2000     0.141   262.409     5.991     0.818      0.95     1.979   110.785      7.67
 3334.3000     0.144   260.766     6.301     0.755      0.85     1.965   108.445      8.07
