~Version Information
#----------------------------------------------------------------
VERS.             1.20: CWLS log ASCII Standard - VERSION 1.20
WRAP.              NO : One line per depth step
~Well Information
#----------------------------------------------------------------
#MNEM.UNIT             DATA TYPE           INFORMATION
#---------     -------------------------- -----------------------
STRT .M                             3088 : Start depth
STOP .M                        3450.8000 : Stop depth
STEP .M                           0.1000 : Step
NULL .                             -9999 : Null value
COMP .                           COMPANI : 
WELL .                              WELL :
FLD  .                             FIELD : 
CNTY .                            COUNTY : 
STAT .                             STATE : 
DATE .                              DATE : 
SRVC .                   SERVICE COMPANY : 
UWI  .                               UWI : 
~Curve Information
#----------------------------------------------------------------
#MNEM.UNIT              API CODE           CURVE DESCRIPTION
#---------     -------------------------- -----------------------
DEPT .M                                  : 1  DEPTH
DS   .m                                  : BOREHOLE DIAMETER
DT   .                                   : ACOUSTIC dT
GK   .                                   : GAMMA RAYS
MGZ  .                                   : 
MPZ  .Ohmm                               : MICRO POTENTIAL LOG BORE
NGK  .                                   : 
PS   .                                   : SELF POLARIZATION
PZ   .Ohmm                               : POTENTIAL RESISTIVITY BORE
~Parameter Information
#----------------------------------------------------------------
#MNEM.UNIT               VALUE             PARAMETER DESCRIPTION
#---------     -------------------------- -----------------------
EKB  .M                                0 : Elevation,Kelly Bushing
TDL  .M                            -9999 : Total Depth-Logger
RMF  .OHMM                         -9999 : Mud Filtrate Resistivity
MFST .DEGC                         -9999 : Mud Filtrate Sample Temperature
BS   .MM                           -9999 : Bit Size
BHT  .DEGC                         -9999 : Bottom Hole Temp.(Max Temp)
AVST .DEGC                         -9999 : Average Surface Temperature
DFD  .G/S3                         -9999 : Drilling Fluid Density
~Other Information
#----------------------------------------------------------------

#----------------------------------------------------------------
#    Depth        DS        DT        GK       MGZ       MPZ       NGK        PS        PZ
~ASCII Log Data
 3088.0000     -9999     -9999     -9999     -9999      0.21     -9999     -9999     -9999
 3088.1000     -9999     -9999     -9999     -9999      0.21     -9999     -9999     -9999
 3088.2000     0.163   237.782     5.259     0.422      0.21     1.783    60.131      7.27
 3088.3000     0.164   238.486     5.444     0.422      0.23     1.774    55.676      7.11
 3088.4000     0.165   239.190     5.630     0.422      0.25     1.765    51.221      6.95
 3088.5000     0.167   240.573     5.847     0.390      0.24     1.753    47.723      6.76
 3088.6000     0.168   241.955     6.065     0.358      0.23     1.740    44.225      6.58
 3088.7000     0.170   243.989     6.322     0.312      0.22     1.724    41.614      6.44
 3088.8000     0.172   246.023     6.579     0.265      0.21     1.707    39.003      6.31
 3088.9000     0.178   249.012     6.873     0.223      0.20     1.684    36.729      6.30
 3089.0000     0.184   252.002     7.168     0.182      0.20     1.662    34.454      6.29
 3089.1000     0.190   255.136     7.455     0.155      0.19     1.636    32.238      6.34
 3089.2000     0.196   258.270     7.742     0.127      0.18     1.610    30.022      6.38
 3089.3000     0.198   261.001     7.821     0.150      0.19     1.603    28.109      6.36
 3089.4000     0.200   263.733     7.900     0.172      0.21     1.596    26.196      6.34
 3089.5000     0.201   266.006     7.760     0.204      0.21     1.597    24.629      6.24
 3089.6000     0.202   268.279     7.620     0.235      0.21     1.598    23.063      6.15
 3089.7000     0.201   267.870     7.540     0.244      0.22     1.595    21.634      6.05
 3089.8000     0.200   267.460     7.459     0.253      0.24     1.592    20.206      5.95
 3089.9000     0.201   263.578     7.562     0.253      0.26     1.595    19.017      5.82
 3090.0000     0.201   259.695     7.665     0.253      0.29     1.599    17.829      5.70
 3090.1000     0.201   255.267     7.840     0.253      0.31     1.602    16.875      5.56
 3090.2000     0.202   250.838     8.016     0.253      0.33     1.604    15.922      5.42
 3090.3000     0.201   249.104     8.195     0.253      0.34     1.606    14.906      5.38
 3090.4000     0.200   247.371     8.375     0.253      0.34     1.608    13.890      5.34
 3090.5000     0.200   248.061     8.523     0.253      0.34     1.613    12.851      5.29
 3090.6000     0.200   248.750     8.670     0.253      0.34     1.618    11.811      5.24
 3090.7000     0.201   251.551     8.769     0.253      0.35     1.625    11.054      5.17
 3090.8000     0.201   254.351     8.868     0.253      0.36     1.633    10.297      5.10
 3090.9000     0.203   259.897     8.979     0.253      0.37     1.640     9.788      5.11
 3091.0000     0.204   265.443     9.089     0.253      0.38     1.647     9.280      5.12
 3091.1000     0.207   271.924     9.117     0.253      0.38     1.650     8.781      5.08
 3091.2000     0.210   278.405     9.145     0.253      0.38     1.653     8.281      5.04
 3091.3000     0.213   282.697     8.970     0.253      0.38     1.648     7.795      4.99
 3091.4000     0.216   286.989     8.795     0.253      0.38     1.643     7.310      4.94
 3091.5000     0.217   287.692     8.644     0.253      0.38     1.635     7.059      4.93
 3091.6000     0.218   288.394     8.493     0.253      0.38     1.628     6.809      4.91
 3091.7000     0.224   287.799     8.535     0.253      0.38     1.628     6.922      4.88
 3091.8000     0.230   287.205     8.576     0.253      0.38     1.627     7.036      4.85
 3091.9000     0.237   285.953     8.712     0.253      0.38     1.627     7.411      4.85
 3092.0000     0.244   284.702     8.848     0.253      0.38     1.627     7.786      4.84
 3092.1000     0.245   282.573     8.970     0.253      0.38     1.625     8.297      4.81
 3092.2000     0.246   280.444     9.093     0.253      0.38     1.623     8.808      4.77
 3092.3000     0.243   278.051     9.176     0.253      0.36     1.617     9.344      4.72
 3092.4000     0.241   275.658     9.258     0.253      0.34     1.611     9.881      4.68
 3092.5000     0.236   272.797     9.336     0.227      0.32     1.603    10.323      4.69
 3092.6000     0.232   269.937     9.413     0.200      0.30     1.596    10.764      4.70
 3092.7000     0.231   266.041     9.533     0.201      0.28     1.588    11.003      4.70
 3092.8000     0.231   262.145     9.652     0.202      0.25     1.580    11.242      4.70
 3092.9000     0.236   257.822     9.706     0.235      0.23     1.575    11.391      4.65
 3093.0000     0.242   253.498     9.760     0.268      0.21     1.570    11.540      4.61
 3093.1000     0.244   248.738     9.639     0.248      0.28     1.571    11.611      4.57
 3093.2000     0.246   243.979     9.518     0.228      0.34     1.571    11.682      4.54
 3093.3000     0.241   240.934     9.355     0.213      0.34     1.577    11.648      4.57
 3093.4000     0.235   237.888     9.193     0.198      0.35     1.583    11.613      4.60
 3093.5000     0.230   239.168     9.111     0.227      0.36     1.598    11.552      4.63
 3093.6000     0.225   240.447     9.029     0.255      0.36     1.613    11.490      4.66
 3093.7000     0.225   244.443     8.965     0.271      0.37     1.628    11.509      4.65
 3093.8000     0.225   248.438     8.902     0.287      0.37     1.644    11.528      4.65
 3093.9000     0.229   253.433     8.872     0.284      0.37     1.654    11.792      4.64
 3094.0000     0.234   258.428     8.842     0.280      0.37     1.663    12.057      4.64
 3094.1000     0.234   263.579     8.912     0.277      0.36     1.660    12.620      4.67
 3094.2000     0.235   268.731     8.982     0.274      0.34     1.657    13.183      4.70
 3094.3000     0.232   273.073     9.085     0.271      0.34     1.651    14.113      4.78
 3094.4000     0.229   277.414     9.188     0.268      0.34     1.645    15.043      4.86
 3094.5000     0.229   278.557     9.226     0.265      0.34     1.645    16.486      4.90
 3094.6000     0.230   279.701     9.264     0.262      0.34     1.645    17.928      4.95
 3094.7000     0.232   277.578     9.254     0.269      0.34     1.645    19.658      4.91
 3094.8000     0.234   275.456     9.244     0.275      0.34     1.645    21.388      4.87
 3094.9000     0.236   273.023     9.275     0.274      0.34     1.644    23.258      4.84
 3095.0000     0.238   270.590     9.306     0.272      0.35     1.643    25.128      4.81
 3095.1000     0.238   268.696     9.271     0.262      0.36     1.638    27.130      4.83
 3095.2000     0.238   266.802     9.236     0.253      0.36     1.632    29.131      4.85
 3095.3000     0.234   265.538     9.075     0.241      0.37     1.635    30.903      4.87
 3095.4000     0.229   264.273     8.914     0.228      0.37     1.638    32.674      4.89
 3095.5000     0.222   265.575     8.781     0.228      0.36     1.651    34.176      4.95
 3095.6000     0.216   266.877     8.648     0.228      0.34     1.664    35.678      5.01
 3095.7000     0.215   271.980     8.586     0.241      0.30     1.669    36.889      5.06
 3095.8000     0.213   277.083     8.524     0.253      0.25     1.674    38.100      5.10
 3095.9000     0.215   285.155     8.454     0.253      0.43     1.668    39.057      5.10
 3096.0000     0.216   293.226     8.383     0.253      0.60     1.661    40.014      5.10
 3096.1000     0.213   298.760     8.267     0.253      0.50     1.656    40.964      5.11
 3096.2000     0.209   304.295     8.151     0.253      0.41     1.651    41.913      5.12
 3096.3000     0.208   306.139     7.910     0.253      0.36     1.658    42.410      5.21
 3096.4000     0.206   307.983     7.669     0.253      0.30     1.666    42.908      5.30
 3096.5000     0.207   309.828     7.403     0.231      0.31     1.684    42.955      5.42
 3096.6000     0.208   311.672     7.136     0.209      0.32     1.702    43.002      5.54
 3096.7000     0.208   313.516     7.001     0.218      0.33     1.724    43.564      5.62
