~Version Information
#----------------------------------------------------------------
VERS.             1.20: CWLS log ASCII Standard - VERSION 1.20
WRAP.              NO : One line per depth step
~Well Information
#----------------------------------------------------------------
#MNEM.UNIT             DATA TYPE           INFORMATION
#---------     -------------------------- -----------------------
STRT .M                             3088 : Start depth
STOP .M                        3450.8000 : Stop depth
STEP .M                           0.1000 : Step
NULL .                             -9999 : Null value
COMP .                           COMPANI : 
WELL .                              WELL :
FLD  .                             FIELD : 
CNTY .                            COUNTY : 
STAT .                             STATE : 
DATE .                              DATE : 
SRVC .                   SERVICE COMPANY : 
UWI  .                               UWI : 
~Curve Information
#----------------------------------------------------------------
#MNEM.UNIT              API CODE           CURVE DESCRIPTION
#---------     -------------------------- -----------------------
DEPT .M                                  : 1  DEPTH
DS   .m                                  : BOREHOLE DIAMETER
DT   .                                   : ACOUSTIC dT
GK   .                                   : GAMMA RAYS
MGZ  .                                   : 
MPZ  .Ohmm                               : MICRO POTENTIAL LOG BORE
NGK  .                                   : 
PS   .                                   : SELF POLARIZATION
PZ   .Ohmm                               : POTENTIAL RESISTIVITY BORE
~Parameter Information
#----------------------------------------------------------------
#MNEM.UNIT               VALUE             PARAMETER DESCRIPTION
#---------     -------------------------- -----------------------
EKB  .M                                0 : Elevation,Kelly Bushing
TDL  .M                            -9999 : Total Depth-Logger
RMF  .OHMM                         -9999 : Mud Filtrate Resistivity
MFST .DEGC                         -9999 : Mud Filtrate Sample Temperature
BS   .MM                           -9999 : Bit Size
BHT  .DEGC                         -9999 : Bottom Hole Temp.(Max Temp)
AVST .DEGC                         -9999 : Average Surface Temperature
DFD  .G/S3                         -9999 : Drilling Fluid Density
~Other Information
#----------------------------------------------------------------

#----------------------------------------------------------------
#    Depth        DS        DT        GK       MGZ       MPZ       NGK        PS        PZ
~ASCII Log Data
# ...
 3114.4000     0.142   247.166     4.235     0.709      1.00     1.807   112.034      7.13
 3114.5000     0.141   246.572     4.138     0.682      1.25     1.821   112.496      7.14
 3114.6000     0.141   245.978     4.041     0.655      1.51     1.834   112.958      7.15
 3114.7000     0.141   244.649     3.991     0.582      1.30     1.849   113.486      7.17
 3114.8000     0.140   243.320     3.942     0.509      1.08     1.863   114.015      7.19
 3114.9000     0.141   241.743     3.942     0.503      1.11     1.865   114.489      7.27
 3115.0000     0.141   240.166     3.942     0.498      1.13     1.866   114.963      7.34
 3115.1000     0.142   238.151     3.942     0.563      1.14     1.862   115.212      7.49
 3115.2000     0.143   236.136     3.942     0.627      1.16     1.858   115.460      7.63
 3115.3000     0.143   233.783     3.942     0.642      1.43     1.855   115.537      7.82
 3115.4000     0.143   231.429     3.942     0.657      1.71     1.851   115.614      8.01
 3115.5000     0.143   229.067     3.952     0.663      1.44     1.845   115.394      8.16
 3115.6000     0.143   226.705     3.962     0.669      1.18     1.839   115.174      8.31
 3115.7000     0.144   223.960     4.014     0.603      1.26     1.827   114.370      8.42
 3115.8000     0.144   221.215     4.067     0.536      1.35     1.816   113.567      8.52
 3115.9000     0.144   218.167     4.174     0.492      1.09     1.812   112.754      8.70
 3116.0000     0.143   215.120     4.281     0.447      0.83     1.807   111.941      8.88
 3116.1000     0.144   213.833     4.405     0.502      0.74     1.819   111.568      8.95
 3116.2000     0.145   212.546     4.529     0.557      0.64     1.831   111.194      9.02
 3116.3000     0.145   215.613     4.610     0.599      0.88     1.835   111.275      8.70
 3116.4000     0.145   218.681     4.691     0.641      1.13     1.839   111.357      8.39
 3116.5000     0.144   224.571     4.700     0.650      1.25     1.837   111.520      7.77
 3116.6000     0.142   230.461     4.709     0.658      1.36     1.835   111.683      7.14
 3116.7000     0.141   237.396     4.654     0.801      1.51     1.832   111.471      6.56
 3116.8000     0.141   244.332     4.598     0.943      1.67     1.828   111.260      5.98
 3116.9000     0.141   252.719     4.467     1.090      2.13     1.822   111.049      5.60
 3117.0000     0.141   261.107     4.336     1.237      2.59     1.815   110.838      5.21
 3117.1000     0.139   269.995     4.193     1.128      3.79     1.802   110.646      4.93
 3117.2000     0.137   278.883     4.050     1.020      4.99     1.788   110.454      4.65
 3117.3000     0.135   287.763     3.945     0.865      4.95     1.764   109.789      4.47
 3117.4000     0.133   296.642     3.840     0.710      4.92     1.740   109.124      4.29
 3117.5000     0.133   305.578     3.741     0.670      3.20     1.713   108.249      4.13
 3117.6000     0.133   314.515     3.643     0.631      1.47     1.686   107.375      3.97
 3117.7000     0.133   318.681     3.637     0.631      1.37     1.660   106.734      3.74
 3117.8000     0.133   322.846     3.631     0.631      1.26     1.633   106.093      3.52
 3117.9000     0.134   322.234     3.785     0.631      1.26     1.612   105.942      3.33
 3118.0000     0.134   321.621     3.938     0.631      1.26     1.591   105.791      3.14
 3118.1000     0.134   321.008     4.159     0.597      1.21     1.575   105.967      3.04
 3118.2000     0.135   320.396     4.379     0.563      1.16     1.559   106.143      2.93
 3118.3000     0.134   319.784     4.444     0.524      1.10     1.561   106.083      2.87
 3118.4000     0.134   319.171     4.509     0.484      1.03     1.562   106.023      2.81
 3118.5000     0.134   318.559     4.360     0.502      1.02     1.576   106.177      2.82
 3118.6000     0.135   317.946     4.211     0.520      1.01     1.590   106.331      2.84
 3118.7000     0.135   315.894     4.018     0.517      1.01     1.592   107.359      2.92
 3118.8000     0.135   313.842     3.826     0.514      1.01     1.593   108.387      3.01
 3118.9000     0.134   311.824     3.694     0.488      1.01     1.597   109.905      3.13
 3119.0000     0.134   309.806     3.563     0.462      1.01     1.601   111.423      3.25
 3119.1000     0.134   308.990     3.497     0.511      1.01     1.610   113.354      3.38
 3119.2000     0.134   308.174     3.431     0.559      1.01     1.619   115.284      3.50
 3119.3000     0.134   308.851     3.418     0.562      1.11     1.616   117.529      3.53
 3119.4000     0.135   309.528     3.404     0.564      1.21     1.614   119.775      3.56
 3119.5000     0.135   312.351     3.455     0.558      1.24     1.607   121.607      3.54
 3119.6000     0.135   315.173     3.506     0.551      1.26     1.600   123.438      3.52
 3119.7000     0.134   318.204     3.603     0.559      1.20     1.605   124.600      3.45
 3119.8000     0.134   321.235     3.700     0.568      1.14     1.609   125.761      3.39
 3119.9000     0.134   321.886     3.812     0.536      1.11     1.612   126.583      3.32
 3120.0000     0.133   322.537     3.924     0.504      1.08     1.616   127.406      3.24
 3120.1000     0.134   321.069     4.031     0.504      1.05     1.605   127.854      3.23
 3120.2000     0.134   319.602     4.139     0.504      1.01     1.593   128.302      3.22
 3120.3000     0.134   318.320     4.184     0.466      1.01     1.591   128.339      3.27
 3120.4000     0.135   317.038     4.230     0.429      1.01     1.588   128.375      3.32
 3120.5000     0.135   315.719     4.171     0.429      0.88     1.592   128.352      3.39
 3120.6000     0.135   314.399     4.112     0.429      0.75     1.595   128.329      3.47
 3120.7000     0.134   312.724     3.998     0.466      0.84     1.599   128.217      3.61
 3120.8000     0.133   311.049     3.884     0.504      0.92     1.604   128.106      3.74
 3120.9000     0.132   308.862     3.819     0.536      0.96     1.615   127.683      3.89
 3121.0000     0.131   306.674     3.755     0.568      1.00     1.625   127.260      4.04
 3121.1000     0.131   304.068     3.823     0.600      1.08     1.630   126.632      4.11
 3121.2000     0.131   301.461     3.890     0.631      1.15     1.635   126.005      4.18
 3121.3000     0.131   299.121     4.035     0.631      1.20     1.640   125.501      4.19
 3121.4000     0.131   296.781     4.179     0.631      1.26     1.645   124.998      4.20
 3121.5000     0.131   295.571     4.271     0.631      1.27     1.651   123.981      4.18
 3121.6000     0.131   294.361     4.363     0.631      1.29     1.656   122.965      4.16
 3121.7000     0.132   294.270     4.347     0.631      1.27     1.651   120.908      4.06
 3121.8000     0.132   294.179     4.331     0.631      1.26     1.645   118.852      3.96
 3121.9000     0.132   294.589     4.282     0.631      1.30     1.639   115.633      3.82
 3122.0000     0.132   294.999     4.233     0.631      1.33     1.633   112.414      3.68
 3122.1000     0.132   295.331     4.231     0.631      1.18     1.633   107.568      3.54
 3122.2000     0.131   295.662     4.230     0.631      1.04     1.634   102.721      3.39
 3122.3000     0.131   294.956     4.312     0.631      1.14     1.644    95.542      3.25
 3122.4000     0.131   294.249     4.394     0.631      1.25     1.654    88.363      3.11
 3122.5000     0.132   291.243     4.684     0.599      1.25     1.658    81.350      3.05
 3122.6000     0.132   288.238     4.975     0.567      1.26     1.663    74.337      3.00
 3122.7000     0.134   284.052     5.679     0.475      1.26     1.654    70.304      3.05
 3122.8000     0.136   279.865     6.383     0.384      1.26     1.645    66.271      3.10
 3122.9000     0.141   276.563     7.205     0.359      1.00     1.639    64.294      3.28
 3123.0000     0.146   273.261     8.028     0.335      0.74     1.633    62.316      3.45
 3123.1000     0.152   271.286     8.450     0.326      0.76     1.632    61.806      3.69
