~Version Information
#----------------------------------------------------------------
VERS.             1.20: CWLS log ASCII Standard - VERSION 1.20
WRAP.              NO : One line per depth step
~Well Information
#----------------------------------------------------------------
#MNEM.UNIT             DATA TYPE           INFORMATION
#---------     -------------------------- -----------------------
STRT .M                             3088 : Start depth
STOP .M                        3450.8000 : Stop depth
STEP .M                           0.1000 : Step
NULL .                             -9999 : Null value
COMP .                           COMPANI : 
WELL .                              WELL :
FLD  .                             FIELD : 
CNTY .                            COUNTY : 
STAT .                             STATE : 
DATE .                              DATE : 
SRVC .                   SERVICE COMPANY : 
UWI  .                               UWI : 
~Curve Information
#----------------------------------------------------------------
#MNEM.UNIT              API CODE           CURVE DESCRIPTION
#---------     -------------------------- -----------------------
DEPT .M                                  : 1  DEPTH
DS   .m                                  : BOREHOLE DIAMETER
DT   .                                   : ACOUSTIC dT
GK   .                                   : GAMMA RAYS
MGZ  .                                   : 
MPZ  .Ohmm                               : MICRO POTENTIAL LOG BORE
NGK  .                                   : 
PS   .                                   : SELF POLARIZATION
PZ   .Ohmm                               : POTENTIAL RESISTIVITY BORE
~Parameter Information
#----------------------------------------------------------------
#MNEM.UNIT               VALUE             PARAMETER DESCRIPTION
#---------     -------------------------- -----------------------
EKB  .M                                0 : Elevation,Kelly Bushing
TDL  .M                            -9999 : Total Depth-Logger
RMF  .OHMM                         -9999 : Mud Filtrate Resistivity
MFST .DEGC                         -9999 : Mud Filtrate Sample Temperature
BS   .MM                           -9999 : Bit Size
BHT  .DEGC                         -9999 : Bottom Hole Temp.(Max Temp)
AVST .DEGC                         -9999 : Average Surface Temperature
DFD  .G/S3                         -9999 : Drilling Fluid Density
~Other Information
#----------------------------------------------------------------

#----------------------------------------------------------------
#    Depth        DS        DT        GK       MGZ       MPZ       NGK        PS        PZ
~ASCII Log Data
# ...
 3343.2000     0.155   236.043    10.488     0.216      0.09     1.594   103.712     11.13
 3343.3000     0.150   233.911    10.459     0.184      0.09     1.606   102.915     11.16
 3343.4000     0.146   231.780    10.431     0.152      0.09     1.619   102.119     11.18
 3343.5000     0.146   230.254    10.421     0.155      0.12     1.635   101.464     11.22
 3343.6000     0.146   228.728    10.411     0.158      0.15     1.652   100.808     11.25
 3343.7000     0.145   228.314    10.421     0.181      0.22     1.671   100.486     11.44
 3343.8000     0.143   227.899    10.431     0.204      0.29     1.691   100.165     11.64
 3343.9000     0.139   228.216    10.334     0.396      0.36     1.711   100.566     11.85
 3344.0000     0.135   228.533    10.238     0.588      0.43     1.730   100.966     12.05
 3344.1000     0.134   229.786     9.969     0.816      1.86     1.753   102.148     12.27
 3344.2000     0.133   231.039     9.699     1.045      3.29     1.775   103.330     12.49
 3344.3000     0.133   233.129     9.337     0.956      4.72     1.796   104.768     12.56
 3344.4000     0.133   235.219     8.974     0.866      6.14     1.817   106.206     12.63
 3344.5000     0.133   237.956     8.667     0.713      4.64     1.821   107.743     12.66
 3344.6000     0.133   240.694     8.361     0.560      3.15     1.824   109.279     12.69
 3344.7000     0.133   245.495     8.127     0.569      2.26     1.819   110.911     12.91
 3344.8000     0.133   250.295     7.892     0.579      1.36     1.813   112.543     13.13
 3344.9000     0.134   256.922     7.701     0.557      1.81     1.809   114.160     13.19
 3345.0000     0.134   263.548     7.510     0.535      2.26     1.806   115.777     13.26
 3345.1000     0.134   269.624     7.246     0.467      2.02     1.799   117.768     13.14
 3345.2000     0.135   275.699     6.982     0.399      1.78     1.791   119.759     13.02
 3345.3000     0.134   280.158     6.583     0.354      1.59     1.791   122.181     12.95
 3345.4000     0.134   284.617     6.185     0.310      1.40     1.791   124.603     12.89
 3345.5000     0.134   287.773     5.709     0.361      1.08     1.803   127.313     12.89
 3345.6000     0.133   290.929     5.233     0.411      0.75     1.816   130.024     12.88
 3345.7000     0.132   291.365     4.826     0.484      1.07     1.837   132.155     12.66
 3345.8000     0.132   291.800     4.419     0.557      1.38     1.858   134.285     12.44
 3345.9000     0.132   288.442     4.242     0.554      1.61     1.879   135.247     12.02
 3346.0000     0.131   285.084     4.065     0.552      1.83     1.900   136.209     11.61
 3346.1000     0.131   280.630     4.138     0.605      1.65     1.893   136.116     11.24
 3346.2000     0.131   276.177     4.211     0.659      1.48     1.887   136.022     10.88
 3346.3000     0.134   272.221     4.710     0.577      1.92     1.852   134.137     10.58
 3346.4000     0.136   268.264     5.208     0.495      2.37     1.818   132.251     10.27
 3346.5000     0.140   264.178     6.132     0.363      1.82     1.770   128.785      9.99
 3346.6000     0.144   260.092     7.056     0.230      1.27     1.721   125.319      9.70
 3346.7000     0.146   255.820     8.128     0.218      0.97     1.663   121.810      9.51
 3346.8000     0.148   251.549     9.201     0.206      0.67     1.605   118.300      9.31
 3346.9000     0.153   247.820    10.134     0.181      0.49     1.556   115.561      9.31
 3347.0000     0.158   244.091    11.066     0.155      0.31     1.508   112.822      9.30
 3347.1000     0.166   240.930    11.628     0.166      0.25     1.493   110.700      9.30
 3347.2000     0.173   237.769    12.190     0.177      0.19     1.478   108.577      9.30
 3347.3000     0.177   235.351    12.326     0.187      0.13     1.486   107.025      9.12
 3347.4000     0.182   232.933    12.463     0.197      0.07     1.494   105.472      8.94
 3347.5000     0.186   232.867    12.372     0.147      0.08     1.497   104.604      8.66
 3347.6000     0.191   232.800    12.280     0.098      0.09     1.500   103.736      8.39
 3347.7000     0.196   235.001    12.233     0.082      0.11     1.503   103.240      8.28
 3347.8000     0.200   237.203    12.186     0.067      0.13     1.506   102.744      8.17
 3347.9000     0.204   240.173    12.200     0.073      0.14     1.518   102.095      8.29
 3348.0000     0.207   243.144    12.214     0.080      0.16     1.529   101.446      8.41
 3348.1000     0.201   246.055    12.127     0.108      0.18     1.537   100.755      8.36
 3348.2000     0.195   248.966    12.040     0.137      0.20     1.545   100.063      8.32
 3348.3000     0.186   251.665    11.901     0.170      0.22     1.541    99.452      8.14
 3348.4000     0.178   254.364    11.763     0.204      0.23     1.538    98.841      7.95
 3348.5000     0.178   256.346    11.719     0.213      0.22     1.525    98.317      7.89
 3348.6000     0.178   258.329    11.674     0.221      0.22     1.511    97.793      7.82
 3348.7000     0.178   258.765    11.649     0.221      0.16     1.505    97.377      7.91
 3348.8000     0.179   259.200    11.624     0.221      0.10     1.499    96.961      8.01
 3348.9000     0.179   258.306    11.547     0.248      0.11     1.508    96.583      8.20
 3349.0000     0.179   257.412    11.470     0.276      0.12     1.518    96.206      8.40
 3349.1000     0.180   255.412    11.405     0.276      0.13     1.517    95.896      8.56
 3349.2000     0.181   253.413    11.339     0.276      0.13     1.516    95.585      8.73
 3349.3000     0.178   250.493    11.332     0.278      0.23     1.516    95.393      8.80
 3349.4000     0.176   247.574    11.325     0.280      0.34     1.516    95.200      8.87
 3349.5000     0.175   244.691    11.275     0.289      0.38     1.526    95.059      8.85
 3349.6000     0.174   241.807    11.225     0.298      0.42     1.535    94.918      8.83
 3349.7000     0.177   240.436    11.034     0.300      0.24     1.528    94.835      8.81
 3349.8000     0.181   239.064    10.842     0.302      0.06     1.521    94.752      8.78
 3349.9000     0.181   239.987    10.590     0.324      0.16     1.513    94.769      8.74
 3350.0000     0.182   240.911    10.339     0.347      0.26     1.506    94.785      8.71
 3350.1000     0.177   243.038    10.153     0.324      0.25     1.509    95.025      8.51
 3350.2000     0.173   245.165     9.966     0.301      0.24     1.511    95.264      8.31
 3350.3000     0.169   247.604     9.875     0.237      0.23     1.502    95.768      7.97
 3350.4000     0.166   250.042     9.783     0.173      0.22     1.492    96.271      7.62
 3350.5000     0.167   253.186     9.756     0.128      0.22     1.478    96.930      7.27
 3350.6000     0.167   256.329     9.729     0.084      0.22     1.464    97.588      6.93
 3350.7000     0.172   259.604     9.729     0.078      0.22     1.465    97.706      6.76
 3350.8000     0.177   262.880     9.729     0.072      0.21     1.467    97.824      6.58
 3350.9000     0.190   264.659     9.726     0.066      0.19     1.478    97.453      6.59
 3351.0000     0.203   266.437     9.722     0.060      0.18     1.489    97.083      6.59
 3351.1000     0.213   265.638     9.693     0.090      0.16     1.496    96.857      6.57
 3351.2000     0.222   264.840     9.664     0.121      0.14     1.503    96.631      6.56
 3351.3000     0.222   262.568     9.667     0.155      0.12     1.506    96.412      6.51
 3351.4000     0.223   260.295     9.671     0.189      0.10     1.508    96.194      6.46
 3351.5000     0.220   258.340     9.755     0.172      0.11     1.511    95.960      6.40
 3351.6000     0.216   256.385     9.840     0.156      0.12     1.514    95.725      6.35
 3351.7000     0.213   254.527     9.907     0.134      0.13     1.526    95.616      6.36
 3351.8000     0.210   252.668     9.974     0.111      0.13     1.539    95.507      6.36
 3351.9000     0.216   250.692    10.002     0.135      0.12     1.556    95.616      6.45
