~Version Information
#----------------------------------------------------------------
VERS.             1.20: CWLS log ASCII Standard - VERSION 1.20
WRAP.              NO : One line per depth step
~Well Information
#----------------------------------------------------------------
#MNEM.UNIT             DATA TYPE           INFORMATION
#---------     -------------------------- -----------------------
STRT .M                             3088 : Start depth
STOP .M                        3450.8000 : Stop depth
STEP .M                           0.1000 : Step
NULL .                             -9999 : Null value
COMP .                           COMPANI : 
WELL .                              WELL :
FLD  .                             FIELD : 
CNTY .                            COUNTY : 
STAT .                             STATE : 
DATE .                              DATE : 
SRVC .                   SERVICE COMPANY : 
UWI  .                               UWI : 
~Curve Information
#----------------------------------------------------------------
#MNEM.UNIT              API CODE           CURVE DESCRIPTION
#---------     -------------------------- -----------------------
DEPT .M                                  : 1  DEPTH
DS   .m                                  : BOREHOLE DIAMETER
DT   .                                   : ACOUSTIC dT
GK   .                                   : GAMMA RAYS
MGZ  .                                   : 
MPZ  .Ohmm                               : MICRO POTENTIAL LOG BORE
NGK  .                                   : 
PS   .                                   : SELF POLARIZATION
PZ   .Ohmm                               : POTENTIAL RESISTIVITY BORE
~Parameter Information
#----------------------------------------------------------------
#MNEM.UNIT               VALUE             PARAMETER DESCRIPTION
#---------     -------------------------- -----------------------
EKB  .M                                0 : Elevation,Kelly Bushing
TDL  .M                            -9999 : Total Depth-Logger
RMF  .OHMM                         -9999 : Mud Filtrate Resistivity
MFST .DEGC                         -9999 : Mud Filtrate Sample Temperature
BS   .MM                           -9999 : Bit Size
BHT  .DEGC                         -9999 : Bottom Hole Temp.(Max Temp)
AVST .DEGC                         -9999 : Average Surface Temperature
DFD  .G/S3                         -9999 : Drilling Fluid Density
~Other Information
#----------------------------------------------------------------

#----------------------------------------------------------------
#    Depth        DS        DT        GK       MGZ       MPZ       NGK        PS        PZ
~ASCII Log Data
# ...
 3184.8000     0.166   256.911    12.322     0.403      0.33     1.515    79.390     12.74
 3184.9000     0.167   253.452    12.191     0.426      0.35     1.520    79.725     12.60
 3185.0000     0.169   249.993    12.060     0.449      0.37     1.524    80.060     12.46
 3185.1000     0.168   245.340    12.089     0.449      0.38     1.524    80.373     12.73
 3185.2000     0.167   240.686    12.118     0.448      0.40     1.524    80.686     13.00
 3185.3000     0.159   238.547    12.208     0.422      0.32     1.519    80.987     13.10
 3185.4000     0.150   236.408    12.299     0.395      0.24     1.514    81.288     13.20
 3185.5000     0.143   238.715    12.404     0.411      1.00     1.510    81.590     13.13
 3185.6000     0.135   241.023    12.509     0.427      1.76     1.505    81.891     13.05
 3185.7000     0.137   244.167    12.560     0.419      2.09     1.503    82.169     13.26
 3185.8000     0.139   247.311    12.611     0.411      2.42     1.502    82.446     13.46
 3185.9000     0.145   250.143    12.549     0.375      1.52     1.510    82.687     13.82
 3186.0000     0.151   252.974    12.488     0.339      0.61     1.517    82.927     14.17
 3186.1000     0.149   255.908    12.429     0.344      0.57     1.527    83.154     14.34
 3186.2000     0.147   258.842    12.369     0.349      0.53     1.538    83.381     14.50
 3186.3000     0.145   261.646    12.427     0.361      0.64     1.536    83.727     14.32
 3186.4000     0.143   264.451    12.485     0.372      0.75     1.534    84.072     14.14
 3186.5000     0.150   266.939    12.679     0.348      0.57     1.526    84.715     13.84
 3186.6000     0.158   269.427    12.873     0.324      0.39     1.518    85.359     13.54
 3186.7000     0.162   270.445    12.939     0.293      0.34     1.520    86.262     13.41
 3186.8000     0.165   271.464    13.006     0.261      0.30     1.523    87.164     13.29
 3186.9000     0.164   269.630    12.840     0.289      0.34     1.532    88.159     13.31
 3187.0000     0.162   267.795    12.675     0.318      0.38     1.541    89.154     13.33
 3187.1000     0.154   263.901    12.541     0.382      0.37     1.546    90.162     13.34
 3187.2000     0.146   260.007    12.407     0.445      0.35     1.552    91.170     13.36
 3187.3000     0.141   257.816    12.317     0.440      1.35     1.559    92.606     13.34
 3187.4000     0.137   255.626    12.227     0.435      2.36     1.567    94.042     13.32
 3187.5000     0.137   256.578    12.045     0.428      1.82     1.579    96.158     13.18
 3187.6000     0.136   257.529    11.863     0.422      1.28     1.590    98.274     13.04
 3187.7000     0.134   258.496    11.528     0.414      2.49     1.611   101.156     12.88
 3187.8000     0.133   259.463    11.194     0.405      3.70     1.631   104.038     12.72
 3187.9000     0.134   258.109    10.466     0.440      2.90     1.664   107.591     12.56
 3188.0000     0.135   256.754     9.738     0.474      2.10     1.696   111.145     12.40
 3188.1000     0.134   253.828     8.753     0.570      2.05     1.737   114.855     12.15
 3188.2000     0.134   250.903     7.767     0.666      2.00     1.779   118.566     11.89
 3188.3000     0.133   247.891     6.920     0.732      2.50     1.824   122.277     11.61
 3188.4000     0.132   244.878     6.072     0.798      3.00     1.868   125.987     11.34
 3188.5000     0.132   240.888     5.396     0.780      4.38     1.913   129.467     11.10
 3188.6000     0.131   236.898     4.719     0.761      5.76     1.958   132.947     10.86
 3188.7000     0.131   232.155     4.154     0.891      4.45     1.994   134.870     10.66
 3188.8000     0.131   227.412     3.588     1.021      3.14     2.031   136.792     10.47
 3188.9000     0.130   226.047     3.207     1.059      4.35     2.045   136.494     10.32
 3189.0000     0.130   224.682     2.827     1.097      5.56     2.059   136.196     10.16
 3189.1000     0.130   226.576     2.694     0.905      5.86     2.047   133.651     10.06
 3189.2000     0.129   228.470     2.562     0.712      6.17     2.035   131.106      9.96
 3189.3000     0.128   230.148     2.613     0.637      3.84     2.011   126.840     10.03
 3189.4000     0.128   231.827     2.663     0.561      1.51     1.987   122.574     10.11
 3189.5000     0.128   233.059     2.914     0.530      1.28     1.967   118.382     10.26
 3189.6000     0.129   234.290     3.166     0.498      1.06     1.948   114.189     10.42
 3189.7000     0.129   235.469     3.653     0.530      1.02     1.922   110.720     10.64
 3189.8000     0.129   236.649     4.141     0.561      0.99     1.897   107.251     10.86
 3189.9000     0.130   237.806     4.828     0.664      1.12     1.853   104.379     11.23
 3190.0000     0.131   238.963     5.515     0.767      1.25     1.809   101.507     11.61
 3190.1000     0.132   239.694     6.380     0.859      1.84     1.759    99.499     12.16
 3190.2000     0.132   240.426     7.246     0.951      2.43     1.709    97.490     12.71
 3190.3000     0.132   240.861     8.210     0.836      3.52     1.662    96.031     13.39
 3190.4000     0.132   241.297     9.174     0.722      4.61     1.615    94.571     14.07
 3190.5000     0.132   241.579     9.726     0.671      4.05     1.577    93.314     14.83
 3190.6000     0.133   241.861    10.278     0.619      3.48     1.539    92.057     15.59
 3190.7000     0.133   242.047    10.264     0.817      2.80     1.523    91.000     16.41
 3190.8000     0.133   242.234    10.249     1.015      2.11     1.508    89.943     17.23
 3190.9000     0.132   243.312    10.220     1.066      5.63     1.513    88.887     17.94
 3191.0000     0.132   244.390    10.191     1.116      9.14     1.519    87.830     18.66
 3191.1000     0.132   246.965    10.330     1.025      9.14     1.520    87.021     19.14
 3191.2000     0.132   249.539    10.470     0.934      9.14     1.522    86.212     19.62
 3191.3000     0.132   253.031    10.624     0.921      9.18     1.505    85.671     19.83
 3191.4000     0.132   256.524    10.778     0.909      9.22     1.488    85.131     20.05
 3191.5000     0.132   261.907    10.862     0.918      9.37     1.469    84.622     20.27
 3191.6000     0.132   267.290    10.947     0.927      9.52     1.450    84.114     20.50
 3191.7000     0.132   274.849    10.875     0.867      9.68     1.442    83.730     20.77
 3191.8000     0.132   282.408    10.804     0.807      9.83     1.434    83.346     21.05
 3191.9000     0.132   288.985    10.699     0.685      9.84     1.437    83.073     21.13
 3192.0000     0.133   295.562    10.594     0.563      9.86     1.439    82.799     21.20
 3192.1000     0.134   298.972    10.701     0.481      6.84     1.451    82.592     21.01
 3192.2000     0.135   302.382    10.809     0.398      3.81     1.462    82.386     20.83
 3192.3000     0.136   301.870    11.070     0.498      2.23     1.474    82.262     20.63
 3192.4000     0.137   301.359    11.331     0.598      0.65     1.487    82.139     20.42
 3192.5000     0.136   296.823    11.543     0.575      1.97     1.491    82.167     20.30
 3192.6000     0.135   292.288    11.756     0.552      3.30     1.495    82.196     20.17
 3192.7000     0.134   285.810    11.889     0.503      4.97     1.497    82.345     19.76
 3192.8000     0.132   279.333    12.021     0.455      6.63     1.500    82.494     19.36
 3192.9000     0.132   273.193    12.002     0.641      4.89     1.511    82.561     18.95
 3193.0000     0.131   267.052    11.982     0.826      3.16     1.522    82.628     18.54
 3193.1000     0.131   262.107    11.767     0.914      6.34     1.531    82.628     18.27
 3193.2000     0.131   257.162    11.553     1.001      9.51     1.541    82.628     18.00
 3193.3000     0.131   253.234    11.271     1.007      8.81     1.548    82.628     17.60
 3193.4000     0.131   249.306    10.988     1.013      8.10     1.555    82.628     17.20
 3193.5000     0.131   247.132    10.802     0.981      8.23     1.563    82.548     16.70
