~Version Information
#----------------------------------------------------------------
VERS.             1.20: CWLS log ASCII Standard - VERSION 1.20
WRAP.              NO : One line per depth step
~Well Information
#----------------------------------------------------------------
#MNEM.UNIT             DATA TYPE           INFORMATION
#---------     -------------------------- -----------------------
STRT .M                             3088 : Start depth
STOP .M                        3450.8000 : Stop depth
STEP .M                           0.1000 : Step
NULL .                             -9999 : Null value
COMP .                           COMPANI : 
WELL .                              WELL :
FLD  .                             FIELD : 
CNTY .                            COUNTY : 
STAT .                             STATE : 
DATE .                              DATE : 
SRVC .                   SERVICE COMPANY : 
UWI  .                               UWI : 
~Curve Information
#----------------------------------------------------------------
#MNEM.UNIT              API CODE           CURVE DESCRIPTION
#---------     -------------------------- -----------------------
DEPT .M                                  : 1  DEPTH
DS   .m                                  : BOREHOLE DIAMETER
DT   .                                   : ACOUSTIC dT
GK   .                                   : GAMMA RAYS
MGZ  .                                   : 
MPZ  .Ohmm                               : MICRO POTENTIAL LOG BORE
NGK  .                                   : 
PS   .                                   : SELF POLARIZATION
PZ   .Ohmm                               : POTENTIAL RESISTIVITY BORE
~Parameter Information
#----------------------------------------------------------------
#MNEM.UNIT               VALUE             PARAMETER DESCRIPTION
#---------     -------------------------- -----------------------
EKB  .M                                0 : Elevation,Kelly Bushing
TDL  .M                            -9999 : Total Depth-Logger
RMF  .OHMM                         -9999 : Mud Filtrate Resistivity
MFST .DEGC                         -9999 : Mud Filtrate Sample Temperature
BS   .MM                           -9999 : Bit Size
BHT  .DEGC                         -9999 : Bottom Hole Temp.(Max Temp)
AVST .DEGC                         -9999 : Average Surface Temperature
DFD  .G/S3                         -9999 : Drilling Fluid Density
~Other Information
#----------------------------------------------------------------

#----------------------------------------------------------------
#    Depth        DS        DT        GK       MGZ       MPZ       NGK        PS        PZ
~ASCII Log Data
# ...
 3272.8000     0.132   223.333     3.388     0.553      0.97     2.279    88.641     11.14
 3272.9000     0.132   224.120     3.362     0.583      1.02     2.282    89.266     11.15
 3273.0000     0.132   224.908     3.337     0.613      1.07     2.285    89.891     11.16
 3273.1000     0.132   225.974     3.318     0.613      1.12     2.287    90.501     11.16
 3273.2000     0.132   227.040     3.299     0.613      1.17     2.290    91.111     11.17
 3273.3000     0.132   227.609     3.337     0.613      1.20     2.294    91.776     11.18
 3273.4000     0.132   228.179     3.374     0.613      1.24     2.299    92.441     11.18
 3273.5000     0.132   228.237     3.423     0.612      1.30     2.298    93.146     11.19
 3273.6000     0.132   228.295     3.472     0.612      1.35     2.297    93.852     11.20
 3273.7000     0.132   228.350     3.497     0.612      1.36     2.289    94.703     11.20
 3273.8000     0.132   228.405     3.523     0.612      1.37     2.282    95.554     11.21
 3273.9000     0.132   228.303     3.527     0.612      1.26     2.278    96.579     11.22
 3274.0000     0.132   228.202     3.531     0.612      1.16     2.273    97.604     11.23
 3274.1000     0.132   227.589     3.511     0.612      1.08     2.272    98.677     11.23
 3274.2000     0.132   226.976     3.491     0.612      0.99     2.270    99.751     11.24
 3274.3000     0.132   226.326     3.444     0.612      0.98     2.271   100.833     11.19
 3274.4000     0.132   225.675     3.398     0.612      0.96     2.272   101.916     11.15
 3274.5000     0.132   225.281     3.345     0.570      1.02     2.269   102.678     11.06
 3274.6000     0.132   224.888     3.293     0.528      1.08     2.266   103.440     10.96
 3274.7000     0.132   224.229     3.233     0.528      1.00     2.262   103.893     10.91
 3274.8000     0.132   223.570     3.173     0.528      0.92     2.258   104.346     10.86
 3274.9000     0.132   223.469     3.146     0.570      0.94     2.257   104.887     10.81
 3275.0000     0.132   223.367     3.118     0.612      0.96     2.256   105.427     10.75
 3275.1000     0.132   224.031     3.151     0.612      1.03     2.257   106.153     10.69
 3275.2000     0.132   224.694     3.183     0.612      1.10     2.258   106.879     10.64
 3275.3000     0.132   225.361     3.216     0.612      1.07     2.264   107.702     10.66
 3275.4000     0.132   226.027     3.249     0.612      1.03     2.270   108.526     10.67
 3275.5000     0.132   226.793     3.206     0.612      1.02     2.266   109.350     10.56
 3275.6000     0.132   227.559     3.162     0.612      1.01     2.263   110.173     10.45
 3275.7000     0.132   228.454     3.069     0.612      1.00     2.251   110.938     10.33
 3275.8000     0.132   229.348     2.977     0.612      0.98     2.239   111.702     10.21
 3275.9000     0.132   229.872     2.945     0.612      0.97     2.238   111.999     10.16
 3276.0000     0.132   230.396     2.914     0.612      0.96     2.237   112.295     10.12
 3276.1000     0.132   230.624     2.953     0.612      1.04     2.239   112.146      9.97
 3276.2000     0.132   230.853     2.992     0.612      1.12     2.240   111.998      9.82
 3276.3000     0.132   231.343     3.040     0.612      1.11     2.235   111.742      9.68
 3276.4000     0.132   231.833     3.088     0.612      1.10     2.231   111.486      9.55
 3276.5000     0.132   232.579     3.096     0.612      1.10     2.232   111.307      9.51
 3276.6000     0.132   233.326     3.104     0.612      1.09     2.233   111.129      9.48
 3276.7000     0.132   234.300     3.084     0.612      1.09     2.240   111.098      9.40
 3276.8000     0.132   235.274     3.064     0.612      1.08     2.247   111.068      9.31
 3276.9000     0.132   235.506     3.060     0.612      1.16     2.252   111.038      9.22
 3277.0000     0.132   235.738     3.056     0.612      1.24     2.256   111.007      9.13
 3277.1000     0.132   235.303     3.033     0.612      1.24     2.258   110.823      9.06
 3277.2000     0.132   234.869     3.009     0.612      1.23     2.259   110.639      8.99
 3277.3000     0.132   234.818     2.975     0.612      1.23     2.259   110.592      8.82
 3277.4000     0.131   234.767     2.940     0.612      1.22     2.258   110.545      8.66
 3277.5000     0.131   234.460     2.957     0.612      1.22     2.252   110.880      8.51
 3277.6000     0.131   234.153     2.975     0.612      1.21     2.246   111.215      8.37
 3277.7000     0.131   233.004     3.031     0.612      1.33     2.246   111.575      8.27
 3277.8000     0.131   231.854     3.087     0.612      1.44     2.245   111.935      8.17
 3277.9000     0.131   230.645     3.123     0.612      1.38     2.253   112.057      8.17
 3278.0000     0.131   229.436     3.159     0.612      1.31     2.262   112.179      8.17
 3278.1000     0.131   228.902     3.140     0.612      1.32     2.270   111.928      8.25
 3278.2000     0.131   228.367     3.121     0.612      1.33     2.278   111.676      8.33
 3278.3000     0.132   227.917     3.110     0.612      1.33     2.286   111.224      8.56
 3278.4000     0.132   227.466     3.100     0.612      1.33     2.294   110.772      8.78
 3278.5000     0.132   226.703     3.147     0.612      1.28     2.306   110.385      9.13
 3278.6000     0.132   225.940     3.194     0.612      1.22     2.319   109.997      9.47
 3278.7000     0.132   225.349     3.232     0.612      1.21     2.327   109.725      9.73
 3278.8000     0.132   224.758     3.269     0.612      1.20     2.335   109.453      9.99
 3278.9000     0.132   224.245     3.271     0.612      1.20     2.335   109.212     10.14
 3279.0000     0.132   223.731     3.273     0.612      1.20     2.335   108.971     10.29
 3279.1000     0.132   223.393     3.283     0.612      1.27     2.335   108.597     10.36
 3279.2000     0.132   223.054     3.292     0.612      1.33     2.335   108.223     10.44
 3279.3000     0.132   223.054     3.336     0.612      1.24     2.335   107.738     10.52
 3279.4000     0.132   223.054     3.379     0.612      1.15     2.335   107.252     10.60
 3279.5000     0.132   223.054     3.424     0.612      1.13     2.331   106.828     10.67
 3279.6000     0.132   223.054     3.469     0.612      1.12     2.326   106.404     10.74
 3279.7000     0.132   223.054     3.424     0.612      1.17     2.318   106.160     10.77
 3279.8000     0.132   223.054     3.380     0.611      1.22     2.309   105.915     10.81
 3279.9000     0.132   223.059     3.261     0.611      1.24     2.304   105.788     10.81
 3280.0000     0.132   223.063     3.142     0.611      1.25     2.299   105.662     10.81
 3280.1000     0.132   222.837     3.066     0.611      1.25     2.293   105.534     10.81
 3280.2000     0.132   222.611     2.989     0.611      1.25     2.286   105.406     10.81
 3280.3000     0.132   222.306     2.975     0.611      1.31     2.273   105.084     10.81
 3280.4000     0.132   222.002     2.961     0.611      1.36     2.260   104.762     10.81
 3280.5000     0.132   221.633     2.966     0.611      1.35     2.244   104.131     10.81
 3280.6000     0.132   221.263     2.971     0.611      1.34     2.228   103.500     10.81
 3280.7000     0.132   220.850     3.015     0.611      1.30     2.223   102.836     10.75
 3280.8000     0.132   220.436     3.058     0.611      1.25     2.218   102.172     10.69
 3280.9000     0.132   220.604     3.121     0.611      1.24     2.223   101.702     10.61
 3281.0000     0.132   220.773     3.183     0.611      1.22     2.228   101.232     10.53
 3281.1000     0.132   221.207     3.220     0.611      1.18     2.224   100.870     10.51
 3281.2000     0.132   221.642     3.256     0.611      1.14     2.219   100.507     10.50
 3281.3000     0.132   222.171     3.291     0.611      1.12     2.212   100.049     10.50
 3281.4000     0.132   222.699     3.325     0.611      1.09     2.205    99.590     10.50
 3281.5000     0.132   223.552     3.351     0.611      1.16     2.197    98.955     10.46
