~Version Information
#----------------------------------------------------------------
VERS.             1.20: CWLS log ASCII Standard - VERSION 1.20
WRAP.              NO : One line per depth step
~Well Information
#----------------------------------------------------------------
#MNEM.UNIT             DATA TYPE           INFORMATION
#---------     -------------------------- -----------------------
STRT .M                             3088 : Start depth
STOP .M                        3450.8000 : Stop depth
STEP .M                           0.1000 : Step
NULL .                             -9999 : Null value
COMP .                           COMPANI : 
WELL .                              WELL :
FLD  .                             FIELD : 
CNTY .                            COUNTY : 
STAT .                             STATE : 
DATE .                              DATE : 
SRVC .                   SERVICE COMPANY : 
UWI  .                               UWI : 
~Curve Information
#----------------------------------------------------------------
#MNEM.UNIT              API CODE           CURVE DESCRIPTION
#---------     -------------------------- -----------------------
DEPT .M                                  : 1  DEPTH
DS   .m                                  : BOREHOLE DIAMETER
DT   .                                   : ACOUSTIC dT
GK   .                                   : GAMMA RAYS
MGZ  .                                   : 
MPZ  .Ohmm                               : MICRO POTENTIAL LOG BORE
NGK  .                                   : 
PS   .                                   : SELF POLARIZATION
PZ   .Ohmm                               : POTENTIAL RESISTIVITY BORE
~Parameter Information
#----------------------------------------------------------------
#MNEM.UNIT               VALUE             PARAMETER DESCRIPTION
#---------     -------------------------- -----------------------
EKB  .M                                0 : Elevation,Kelly Bushing
TDL  .M                            -9999 : Total Depth-Logger
RMF  .OHMM                         -9999 : Mud Filtrate Resistivity
MFST .DEGC                         -9999 : Mud Filtrate Sample Temperature
BS   .MM                           -9999 : Bit Size
BHT  .DEGC                         -9999 : Bottom Hole Temp.(Max Temp)
AVST .DEGC                         -9999 : Average Surface Temperature
DFD  .G/S3                         -9999 : Drilling Fluid Density
~Other Information
#----------------------------------------------------------------

#----------------------------------------------------------------
#    Depth        DS        DT        GK       MGZ       MPZ       NGK        PS        PZ
~ASCII Log Data
# ...
 3369.6000     0.185   320.480     8.820     0.272      0.22     1.584    96.284      9.89
 3369.7000     0.185   320.044     9.014     0.240      0.38     1.577    96.167      9.97
 3369.8000     0.184   319.609     9.209     0.207      0.53     1.571    96.050     10.04
 3369.9000     0.177   317.718     9.442     0.196      0.39     1.575    95.935     10.06
 3370.0000     0.170   315.827     9.676     0.185      0.26     1.579    95.820     10.08
 3370.1000     0.169   312.885     9.814     0.266      0.25     1.586    95.705      9.99
 3370.2000     0.167   309.943     9.953     0.346      0.24     1.594    95.590      9.90
 3370.3000     0.169   307.982     9.899     0.373      0.25     1.598    95.492      9.81
 3370.4000     0.172   306.020     9.845     0.399      0.25     1.602    95.394      9.71
 3370.5000     0.175   304.633     9.678     0.348      0.29     1.604    95.354      9.71
 3370.6000     0.177   303.247     9.511     0.297      0.33     1.605    95.313      9.71
 3370.7000     0.176   302.585     9.409     0.257      0.28     1.607    95.249      9.67
 3370.8000     0.176   301.923     9.307     0.218      0.23     1.609    95.185      9.63
 3370.9000     0.171   302.632     9.340     0.218      0.22     1.604    95.027      9.52
 3371.0000     0.167   303.341     9.372     0.218      0.22     1.598    94.869      9.41
 3371.1000     0.169   304.777     9.396     0.218      0.28     1.594    94.775      9.35
 3371.2000     0.171   306.213     9.421     0.218      0.34     1.590    94.681      9.29
 3371.3000     0.173   307.299     9.357     0.218      0.30     1.595    94.523      9.28
 3371.4000     0.175   308.384     9.293     0.218      0.26     1.599    94.365      9.28
 3371.5000     0.175   308.982     9.239     0.218      0.22     1.596    94.049      9.18
 3371.6000     0.175   309.581     9.184     0.218      0.18     1.594    93.732      9.08
 3371.7000     0.176   309.860     9.205     0.197      0.14     1.595    93.574      8.93
 3371.8000     0.177   310.139     9.226     0.176      0.10     1.595    93.416      8.78
 3371.9000     0.178   308.713     9.355     0.140      0.11     1.595    93.416      8.67
 3372.0000     0.180   307.286     9.485     0.105      0.12     1.596    93.416      8.57
 3372.1000     0.184   304.407     9.689     0.132      0.11     1.586    93.416      8.50
 3372.2000     0.187   301.528     9.894     0.160      0.10     1.576    93.416      8.44
 3372.3000     0.188   298.075    10.058     0.163      0.11     1.573    93.416      8.35
 3372.4000     0.189   294.622    10.222     0.167      0.12     1.571    93.416      8.27
 3372.5000     0.187   289.877    10.349     0.129      0.14     1.566    93.417      8.11
 3372.6000     0.185   285.131    10.475     0.091      0.15     1.560    93.417      7.95
 3372.7000     0.189   279.312    10.715     0.091      0.17     1.557    93.549      7.76
 3372.8000     0.192   273.493    10.955     0.091      0.18     1.555    93.681      7.58
 3372.9000     0.201   267.740    11.320     0.091      0.20     1.567    93.622      7.49
 3373.0000     0.209   261.987    11.686     0.091      0.22     1.580    93.563      7.40
 3373.1000     0.215   257.492    12.097     0.091      0.20     1.590    93.134      7.36
 3373.2000     0.220   252.997    12.507     0.091      0.19     1.601    92.705      7.33
 3373.3000     0.216   249.870    12.887     0.091      0.17     1.611    92.230      7.30
 3373.4000     0.212   246.744    13.267     0.091      0.16     1.621    91.755      7.26
 3373.5000     0.211   244.471    13.462     0.091      0.14     1.633    91.238      7.16
 3373.6000     0.209   242.198    13.657     0.091      0.13     1.644    90.721      7.07
 3373.7000     0.207   242.054    13.542     0.091      0.11     1.651    90.133      6.95
 3373.8000     0.205   241.910    13.427     0.091      0.10     1.658    89.545      6.82
 3373.9000     0.202   243.898    13.127     0.091      0.10     1.664    88.740      6.81
 3374.0000     0.199   245.886    12.827     0.091      0.10     1.671    87.936      6.79
 3374.1000     0.203   247.979    12.625     0.091      0.10     1.671    86.867      6.82
 3374.2000     0.206   250.072    12.422     0.091      0.10     1.671    85.797      6.84
 3374.3000     0.205   251.633    12.430     0.091      0.11     1.659    84.294      6.85
 3374.4000     0.204   253.193    12.438     0.091      0.11     1.647    82.790      6.85
 3374.5000     0.201   254.112    12.533     0.091      0.11     1.643    81.660      6.89
 3374.6000     0.198   255.032    12.629     0.091      0.12     1.640    80.530      6.94
 3374.7000     0.197   255.432    12.659     0.117      0.12     1.650    80.111      7.01
 3374.8000     0.196   255.832    12.689     0.143      0.12     1.659    79.691      7.07
 3374.9000     0.193   255.590    12.641     0.137      0.13     1.666    79.148      7.13
 3375.0000     0.191   255.347    12.593     0.130      0.13     1.673    78.605      7.19
 3375.1000     0.192   254.426    12.559     0.104      0.13     1.676    77.770      7.24
 3375.2000     0.193   253.505    12.526     0.079      0.13     1.679    76.935      7.28
 3375.3000     0.197   252.966    12.552     0.115      0.13     1.677    75.765      7.32
 3375.4000     0.200   252.428    12.578     0.151      0.12     1.674    74.595      7.35
 3375.5000     0.198   251.892    12.602     0.175      0.11     1.662    73.277      7.37
 3375.6000     0.196   251.356    12.626     0.199      0.11     1.650    71.960      7.39
 3375.7000     0.195   251.021    12.573     0.184      0.11     1.641    70.611      7.39
 3375.8000     0.194   250.687    12.519     0.169      0.10     1.633    69.261      7.39
 3375.9000     0.196   250.470    12.440     0.144      0.09     1.632    68.173      7.39
 3376.0000     0.198   250.254    12.361     0.119      0.09     1.631    67.085      7.39
 3376.1000     0.199   249.887    12.373     0.138      0.09     1.632    66.291      7.39
 3376.2000     0.200   249.521    12.386     0.156      0.10     1.632    65.497      7.39
 3376.3000     0.199   249.686    12.410     0.191      0.11     1.628    64.863      7.39
 3376.4000     0.198   249.851    12.433     0.226      0.12     1.625    64.228      7.40
 3376.5000     0.197   249.362    12.444     0.230      0.13     1.617    63.803      7.40
 3376.6000     0.195   248.874    12.456     0.235      0.13     1.609    63.378      7.41
 3376.7000     0.194   247.372    12.527     0.239      0.13     1.602    62.942      7.43
 3376.8000     0.194   245.870    12.598     0.243      0.13     1.596    62.507      7.44
 3376.9000     0.194   243.996    12.591     0.248      0.13     1.596    62.144      7.46
 3377.0000     0.194   242.122    12.584     0.252      0.13     1.596    61.781      7.48
 3377.1000     0.192   240.594    12.375     0.208      0.13     1.607    61.802      7.54
 3377.2000     0.191   239.066    12.165     0.165      0.12     1.619    61.823      7.60
 3377.3000     0.190   238.189    11.983     0.155      0.12     1.623    62.437      7.64
 3377.4000     0.190   237.313    11.800     0.145      0.12     1.627    63.051      7.68
 3377.5000     0.195   237.355    11.835     0.181      0.12     1.622    64.082      7.68
 3377.6000     0.200   237.397    11.869     0.217      0.12     1.617    65.114      7.68
 3377.7000     0.203   239.752    12.021     0.217      0.11     1.618    65.885      7.68
 3377.8000     0.206   242.107    12.173     0.217      0.11     1.618    66.656      7.68
 3377.9000     0.204   246.806    12.292     0.217      0.11     1.615    67.120      7.68
 3378.0000     0.202   251.505    12.411     0.217      0.11     1.613    67.585      7.68
 3378.1000     0.202   257.025    12.328     0.217      0.11     1.609    68.155      7.68
 3378.2000     0.202   262.545    12.245     0.217      0.10     1.605    68.725      7.68
 3378.3000     0.203   268.122    11.930     0.217      0.10     1.612    69.282      7.68
