~Version Information
#----------------------------------------------------------------
VERS.             1.20: CWLS log ASCII Standard - VERSION 1.20
WRAP.              NO : One line per depth step
~Well Information
#----------------------------------------------------------------
#MNEM.UNIT             DATA TYPE           INFORMATION
#---------     -------------------------- -----------------------
STRT .M                             3088 : Start depth
STOP .M                        3450.8000 : Stop depth
STEP .M                           0.1000 : Step
NULL .                             -9999 : Null value
COMP .                           COMPANI : 
WELL .                              WELL :
FLD  .                             FIELD : 
CNTY .                            COUNTY : 
STAT .                             STATE : 
DATE .                              DATE : 
SRVC .                   SERVICE COMPANY : 
UWI  .                               UWI : 
~Curve Information
#----------------------------------------------------------------
#MNEM.UNIT              API CODE           CURVE DESCRIPTION
#---------     -------------------------- -----------------------
DEPT .M                                  : 1  DEPTH
DS   .m                                  : BOREHOLE DIAMETER
DT   .                                   : ACOUSTIC dT
GK   .                                   : GAMMA RAYS
MGZ  .                                   : 
MPZ  .Ohmm                               : MICRO POTENTIAL LOG BORE
NGK  .                                   : 
PS   .                                   : SELF POLARIZATION
PZ   .Ohmm                               : POTENTIAL RESISTIVITY BORE
~Parameter Information
#----------------------------------------------------------------
#MNEM.UNIT               VALUE             PARAMETER DESCRIPTION
#---------     -------------------------- -----------------------
EKB  .M                                0 : Elevation,Kelly Bushing
TDL  .M                            -9999 : Total Depth-Logger
RMF  .OHMM                         -9999 : Mud Filtrate Resistivity
MFST .DEGC                         -9999 : Mud Filtrate Sample Temperature
BS   .MM                           -9999 : Bit Size
BHT  .DEGC                         -9999 : Bottom Hole Temp.(Max Temp)
AVST .DEGC                         -9999 : Average Surface Temperature
DFD  .G/S3                         -9999 : Drilling Fluid Density
~Other Information
#----------------------------------------------------------------

#----------------------------------------------------------------
#    Depth        DS        DT        GK       MGZ       MPZ       NGK        PS        PZ
~ASCII Log Data
# ...
 3299.2000     0.134   237.160     3.788     0.608      1.20     2.136    87.131      9.52
 3299.3000     0.134   237.965     3.733     0.608      1.21     2.134    86.431      9.52
 3299.4000     0.134   238.771     3.678     0.608      1.22     2.132    85.731      9.52
 3299.5000     0.134   239.269     3.675     0.608      1.23     2.124    84.725      9.50
 3299.6000     0.134   239.767     3.672     0.608      1.24     2.116    83.719      9.48
 3299.7000     0.134   239.944     3.780     0.608      1.12     2.118    83.308      9.40
 3299.8000     0.134   240.122     3.889     0.608      1.00     2.120    82.896      9.31
 3299.9000     0.134   240.454     4.028     0.608      0.99     2.128    82.979      9.27
 3300.0000     0.134   240.787     4.166     0.608      0.97     2.135    83.062      9.22
 3300.1000     0.134   241.264     4.311     0.608      1.03     2.135    83.042      9.08
 3300.2000     0.134   241.742     4.457     0.608      1.09     2.134    83.021      8.94
 3300.3000     0.134   241.951     4.613     0.628      1.09     2.135    83.323      8.79
 3300.4000     0.134   242.160     4.769     0.648      1.08     2.135    83.625      8.64
 3300.5000     0.134   241.460     4.878     0.679      1.30     2.135    84.126      8.65
 3300.6000     0.134   240.760     4.988     0.711      1.51     2.136    84.628      8.66
 3300.7000     0.134   239.624     5.005     0.658      1.67     2.134    85.337      8.66
 3300.8000     0.134   238.488     5.022     0.604      1.83     2.131    86.047      8.67
 3300.9000     0.134   237.602     5.018     0.574      1.53     2.123    87.011      8.68
 3301.0000     0.135   236.716     5.015     0.544      1.22     2.116    87.975      8.68
 3301.1000     0.135   235.932     5.019     0.584      1.22     2.105    88.656      8.68
 3301.2000     0.135   235.147     5.024     0.623      1.21     2.094    89.337      8.69
 3301.3000     0.135   234.660     4.952     0.632      1.27     2.089    89.660      8.69
 3301.4000     0.135   234.173     4.880     0.640      1.33     2.085    89.982      8.70
 3301.5000     0.135   234.395     4.715     0.596      1.29     2.087    90.253      8.70
 3301.6000     0.135   234.617     4.550     0.553      1.24     2.088    90.524      8.71
 3301.7000     0.134   235.261     4.354     0.538      1.10     2.089    90.771      8.70
 3301.8000     0.134   235.905     4.157     0.524      0.96     2.090    91.018      8.70
 3301.9000     0.134   236.433     4.052     0.561      0.97     2.097    91.156      8.61
 3302.0000     0.134   236.961     3.946     0.599      0.98     2.105    91.295      8.53
 3302.1000     0.134   237.435     3.961     0.604      1.04     2.118    91.273      8.49
 3302.2000     0.133   237.908     3.976     0.608      1.09     2.130    91.251      8.45
 3302.3000     0.133   238.250     4.007     0.608      1.14     2.139    91.176      8.52
 3302.4000     0.133   238.592     4.037     0.608      1.20     2.148    91.102      8.60
 3302.5000     0.133   238.824     4.011     0.608      1.21     2.154    91.037      8.57
 3302.6000     0.133   239.057     3.985     0.608      1.21     2.160    90.972      8.53
 3302.7000     0.133   239.264     3.911     0.608      1.22     2.164    90.919      8.46
 3302.8000     0.133   239.470     3.836     0.608      1.23     2.167    90.867      8.39
 3302.9000     0.133   239.617     3.762     0.576      1.23     2.164    91.039      8.39
 3303.0000     0.133   239.763     3.689     0.544      1.22     2.160    91.211      8.39
 3303.1000     0.133   239.460     3.645     0.513      1.11     2.151    91.660      8.39
 3303.2000     0.133   239.156     3.601     0.481      0.99     2.141    92.108      8.39
 3303.3000     0.133   238.848     3.618     0.481      0.99     2.138    92.586      8.39
 3303.4000     0.133   238.540     3.634     0.481      0.99     2.135    93.063      8.39
 3303.5000     0.133   238.171     3.672     0.481      0.99     2.141    93.227      8.39
 3303.6000     0.133   237.801     3.710     0.481      0.99     2.146    93.390      8.39
 3303.7000     0.133   236.970     3.720     0.513      0.99     2.156    93.264      8.41
 3303.8000     0.133   236.140     3.730     0.544      0.99     2.167    93.137      8.43
 3303.9000     0.133   235.730     3.757     0.576      1.02     2.179    93.010      8.50
 3304.0000     0.133   235.321     3.783     0.608      1.05     2.191    92.884      8.56
 3304.1000     0.133   235.321     3.787     0.571      1.06     2.191    92.426      8.60
 3304.2000     0.133   235.321     3.792     0.533      1.07     2.190    91.967      8.64
 3304.3000     0.133   235.577     3.717     0.533      1.03     2.181    91.005      8.64
 3304.4000     0.133   235.833     3.643     0.533      0.99     2.172    90.043      8.64
 3304.5000     0.133   236.573     3.588     0.571      0.99     2.176    88.768      8.64
 3304.6000     0.133   237.314     3.532     0.608      0.99     2.180    87.492      8.64
 3304.7000     0.133   237.798     3.588     0.608      1.04     2.183    86.438      8.64
 3304.8000     0.133   238.283     3.644     0.608      1.08     2.186    85.384      8.64
 3304.9000     0.133   238.230     3.819     0.608      1.10     2.175    85.788      8.64
 3305.0000     0.133   238.177     3.995     0.608      1.11     2.164    86.193      8.64
 3305.1000     0.133   237.543     4.238     0.608      1.17     2.158    87.680      8.64
 3305.2000     0.133   236.908     4.482     0.608      1.23     2.151    89.168      8.64
 3305.3000     0.133   235.936     4.701     0.625      1.22     2.149    90.384      8.68
 3305.4000     0.133   234.963     4.921     0.642      1.21     2.147    91.601      8.71
 3305.5000     0.133   233.728     5.026     0.678      1.33     2.141    92.320      8.84
 3305.6000     0.133   232.493     5.130     0.714      1.45     2.136    93.040      8.96
 3305.7000     0.133   231.081     5.056     0.690      1.81     2.140    93.122      8.99
 3305.8000     0.133   229.670     4.981     0.666      2.16     2.144    93.204      9.02
 3305.9000     0.134   229.747     4.738     0.598      2.18     2.156    92.881      8.92
 3306.0000     0.134   229.824     4.494     0.530      2.19     2.168    92.557      8.82
 3306.1000     0.134   231.098     4.224     0.505      1.75     2.185    92.163      8.69
 3306.2000     0.135   232.371     3.954     0.480      1.30     2.202    91.770      8.56
 3306.3000     0.135   233.000     3.798     0.484      1.13     2.217    91.414      8.35
 3306.4000     0.135   233.629     3.642     0.487      0.95     2.233    91.059      8.14
 3306.5000     0.134   233.629     3.632     0.508      0.95     2.237    90.930      7.98
 3306.6000     0.134   233.629     3.621     0.530      0.95     2.241    90.802      7.82
 3306.7000     0.134   233.629     3.700     0.549      0.95     2.242    90.802      7.81
 3306.8000     0.133   233.629     3.779     0.569      0.95     2.243    90.802      7.80
 3306.9000     0.133   233.279     3.844     0.571      1.01     2.250    90.771      7.88
 3307.0000     0.133   232.930     3.908     0.572      1.08     2.256    90.741      7.96
 3307.1000     0.133   231.891     3.921     0.574      1.16     2.260    90.610      8.06
 3307.2000     0.133   230.851     3.933     0.576      1.24     2.263    90.479      8.16
 3307.3000     0.133   230.410     3.955     0.577      1.23     2.257    90.451      8.23
 3307.4000     0.133   229.968     3.977     0.579      1.21     2.251    90.422      8.30
 3307.5000     0.133   230.595     4.006     0.581      1.14     2.245    90.526      8.34
 3307.6000     0.133   231.222     4.035     0.583      1.08     2.239    90.631      8.37
 3307.7000     0.134   231.885     4.023     0.585      1.09     2.232    90.503      8.40
 3307.8000     0.134   232.549     4.011     0.586      1.10     2.224    90.374      8.42
 3307.9000     0.134   232.997     3.957     0.587      1.15     2.212    90.175      8.39
