~Version Information
#----------------------------------------------------------------
VERS.             1.20: CWLS log ASCII Standard - VERSION 1.20
WRAP.              NO : One line per depth step
~Well Information
#----------------------------------------------------------------
#MNEM.UNIT             DATA TYPE           INFORMATION
#---------     -------------------------- -----------------------
STRT .M                             3088 : Start depth
STOP .M                        3450.8000 : Stop depth
STEP .M                           0.1000 : Step
NULL .                             -9999 : Null value
COMP .                           COMPANI : 
WELL .                              WELL :
FLD  .                             FIELD : 
CNTY .                            COUNTY : 
STAT .                             STATE : 
DATE .                              DATE : 
SRVC .                   SERVICE COMPANY : 
UWI  .                               UWI : 
~Curve Information
#----------------------------------------------------------------
#MNEM.UNIT              API CODE           CURVE DESCRIPTION
#---------     -------------------------- -----------------------
DEPT .M                                  : 1  DEPTH
DS   .m                                  : BOREHOLE DIAMETER
DT   .                                   : ACOUSTIC dT
GK   .                                   : GAMMA RAYS
MGZ  .                                   : 
MPZ  .Ohmm                               : MICRO POTENTIAL LOG BORE
NGK  .                                   : 
PS   .                                   : SELF POLARIZATION
PZ   .Ohmm                               : POTENTIAL RESISTIVITY BORE
~Parameter Information
#----------------------------------------------------------------
#MNEM.UNIT               VALUE             PARAMETER DESCRIPTION
#---------     -------------------------- -----------------------
EKB  .M                                0 : Elevation,Kelly Bushing
TDL  .M                            -9999 : Total Depth-Logger
RMF  .OHMM                         -9999 : Mud Filtrate Resistivity
MFST .DEGC                         -9999 : Mud Filtrate Sample Temperature
BS   .MM                           -9999 : Bit Size
BHT  .DEGC                         -9999 : Bottom Hole Temp.(Max Temp)
AVST .DEGC                         -9999 : Average Surface Temperature
DFD  .G/S3                         -9999 : Drilling Fluid Density
~Other Information
#----------------------------------------------------------------

#----------------------------------------------------------------
#    Depth        DS        DT        GK       MGZ       MPZ       NGK        PS        PZ
~ASCII Log Data
# ...
 3440.0000     0.131   241.366     2.767     -9999     -9999     2.168   131.602      5.25
 3440.1000     0.131   242.332     2.770     -9999     -9999     2.160   132.220      5.20
 3440.2000     0.131   243.299     2.774     -9999     -9999     2.152   132.838      5.16
 3440.3000     0.131   243.893     2.836     -9999     -9999     2.145   133.456      5.10
 3440.4000     0.131   244.487     2.897     -9999     -9999     2.138   134.074      5.04
 3440.5000     0.131   244.735     3.102     -9999     -9999     2.135   134.391      5.00
 3440.6000     0.131   244.983     3.306     -9999     -9999     2.132   134.708      4.96
 3440.7000     0.131   245.203     3.640     -9999     -9999     2.127   134.693      4.99
 3440.8000     0.131   245.424     3.973     -9999     -9999     2.122   134.678      5.01
 3440.9000     0.131   245.592     4.279     -9999     -9999     2.115   134.423      5.05
 3441.0000     0.131   245.760     4.585     -9999     -9999     2.108   134.167      5.09
 3441.1000     0.131   245.901     4.639     -9999     -9999     2.105   133.564      5.18
 3441.2000     0.131   246.043     4.694     -9999     -9999     2.103   132.960      5.27
 3441.3000     0.131   245.898     4.554     -9999     -9999     2.109   132.018      5.47
 3441.4000     0.131   245.754     4.413     -9999     -9999     2.114   131.075      5.66
 3441.5000     0.131   245.040     4.196     -9999     -9999     2.131   129.693      5.93
 3441.6000     0.131   244.327     3.979     -9999     -9999     2.147   128.310      6.20
 3441.7000     0.131   243.811     3.641     -9999     -9999     2.173   126.176      6.44
 3441.8000     0.131   243.294     3.304     -9999     -9999     2.199   124.042      6.68
 3441.9000     0.131   242.690     3.054     -9999     -9999     2.211   121.896      6.70
 3442.0000     0.131   242.086     2.804     -9999     -9999     2.224   119.749      6.72
 3442.1000     0.131   241.018     2.841     -9999     -9999     2.215   118.139      6.48
 3442.2000     0.131   239.951     2.878     -9999     -9999     2.206   116.529      6.25
 3442.3000     0.131   239.488     3.109     -9999     -9999     2.186   115.030      5.99
 3442.4000     0.131   239.025     3.340     -9999     -9999     2.165   113.531      5.73
 3442.5000     0.131   239.676     3.647     -9999     -9999     2.140   112.337      5.66
 3442.6000     0.131   240.327     3.954     -9999     -9999     2.115   111.143      5.60
 3442.7000     0.132   241.690     4.345     -9999     -9999     2.086   109.966      5.74
 3442.8000     0.132   243.053     4.737     -9999     -9999     2.056   108.790      5.88
 3442.9000     0.133   244.855     5.344     -9999     -9999     2.014   107.278      6.13
 3443.0000     0.134   246.658     5.951     -9999     -9999     1.972   105.766      6.38
 3443.1000     0.135   248.972     6.710     -9999     -9999     1.931   104.182      6.71
 3443.2000     0.136   251.286     7.470     -9999     -9999     1.891   102.599      7.04
 3443.3000     0.137   253.768     7.915     -9999     -9999     1.860   101.215      7.41
 3443.4000     0.137   256.250     8.361     -9999     -9999     1.829    99.830      7.79
 3443.5000     0.137   258.398     8.293     -9999     -9999     1.803    98.594      8.15
 3443.6000     0.138   260.546     8.225     -9999     -9999     1.778    97.358      8.50
 3443.7000     0.139   262.207     7.957     -9999     -9999     1.770    96.122      8.82
 3443.8000     0.139   263.869     7.689     -9999     -9999     1.761    94.887      9.14
 3443.9000     0.139   265.215     7.548     -9999     -9999     1.770    93.651      9.43
 3444.0000     0.140   266.561     7.406     -9999     -9999     1.778    92.415      9.73
 3444.1000     0.141   266.292     7.339     -9999     -9999     1.788    91.180      9.86
 3444.2000     0.142   266.023     7.271     -9999     -9999     1.798    89.944      9.99
 3444.3000     0.143   264.041     7.103     -9999     -9999     1.797    89.090      9.98
 3444.4000     0.143   262.059     6.936     -9999     -9999     1.796    88.235      9.96
 3444.5000     0.143   258.961     6.731     -9999     -9999     1.796    87.999      9.95
 3444.6000     0.142   255.862     6.527     -9999     -9999     1.797    87.762      9.94
 3444.7000     0.143   252.871     6.401     -9999     -9999     1.808    88.273      9.93
 3444.8000     0.143   249.881     6.276     -9999     -9999     1.818    88.784      9.92
 3444.9000     0.144   248.617     6.227     -9999     -9999     1.823    90.632      9.86
 3445.0000     0.144   247.354     6.179     -9999     -9999     1.828    92.480      9.81
 3445.1000     0.145   247.078     6.061     -9999     -9999     1.833    94.866      9.71
 3445.2000     0.146   246.803     5.943     -9999     -9999     1.838    97.252      9.61
 3445.3000     0.146   248.281     5.806     -9999     -9999     1.843    99.210      9.49
 3445.4000     0.146   249.759     5.670     -9999     -9999     1.848   101.167      9.38
 3445.5000     0.146   253.289     5.693     -9999     -9999     1.842   102.947      9.23
 3445.6000     0.145   256.819     5.716     -9999     -9999     1.836   104.727      9.08
 3445.7000     0.145   261.008     5.823     -9999     -9999     1.832   106.505      8.99
 3445.8000     0.145   265.196     5.929     -9999     -9999     1.827   108.284      8.91
 3445.9000     0.144   269.607     6.047     -9999     -9999     1.829   109.986      8.84
 3446.0000     0.144   274.017     6.165     -9999     -9999     1.832   111.689      8.78
 3446.1000     0.143   278.574     6.368     -9999     -9999     1.830   113.103      8.68
 3446.2000     0.142   283.132     6.572     -9999     -9999     1.828   114.517      8.58
 3446.3000     0.143   286.844     6.807     -9999     -9999     1.813   115.486      8.56
 3446.4000     0.143   290.555     7.042     -9999     -9999     1.799   116.455      8.53
 3446.5000     0.144   291.725     7.099     -9999     -9999     1.786   116.999      8.55
 3446.6000     0.144   292.896     7.157     -9999     -9999     1.773   117.542      8.57
 3446.7000     0.144   291.343     6.972     -9999     -9999     1.764   117.589      8.59
 3446.8000     0.143   289.790     6.787     -9999     -9999     1.755   117.635      8.61
 3446.9000     0.143   286.154     6.569     -9999     -9999     1.742   117.316      8.50
 3447.0000     0.142   282.518     6.352     -9999     -9999     1.729   116.998      8.39
 3447.1000     0.142   277.001     6.298     -9999     -9999     1.720   116.630      8.26
 3447.2000     0.142   271.484     6.243     -9999     -9999     1.712   116.261      8.12
 3447.3000     0.142   264.840     6.333     -9999     -9999     1.700   115.637      8.10
 3447.4000     0.142   258.195     6.423     -9999     -9999     1.688   115.013      8.09
 3447.5000     0.144   252.607     6.650     -9999     -9999     1.674   114.139      8.02
 3447.6000     0.145   247.019     6.878     -9999     -9999     1.659   113.265      7.96
 3447.7000     0.148   243.801     7.318     -9999     -9999     1.638   112.236      7.86
 3447.8000     0.150   240.582     7.758     -9999     -9999     1.616   111.208      7.75
 3447.9000     0.154   238.438     8.641     -9999     -9999     1.574   109.775      7.65
 3448.0000     0.157   236.293     9.524     -9999     -9999     1.531   108.343      7.55
 3448.1000     0.165   235.516    10.488     -9999     -9999     1.498   106.220      7.56
 3448.2000     0.173   234.738    11.451     -9999     -9999     1.465   104.097      7.57
 3448.3000     0.180   235.464    11.791     -9999     -9999     1.463   101.078      7.63
 3448.4000     0.187   236.190    12.131     -9999     -9999     1.460    98.060      7.68
 3448.5000     0.185   236.906    12.104     -9999     -9999     1.473    94.682      7.82
 3448.6000     0.182   237.621    12.077     -9999     -9999     1.485    91.304      7.96
 3448.7000     0.176   237.859    12.152     -9999     -9999     1.502    88.180      8.30
