~Version Information
#----------------------------------------------------------------
VERS.             1.20: CWLS log ASCII Standard - VERSION 1.20
WRAP.              NO : One line per depth step
~Well Information
#----------------------------------------------------------------
#MNEM.UNIT             DATA TYPE           INFORMATION
#---------     -------------------------- -----------------------
STRT .M                             3088 : Start depth
STOP .M                        3450.8000 : Stop depth
STEP .M                           0.1000 : Step
NULL .                             -9999 : Null value
COMP .                           COMPANI : 
WELL .                              WELL :
FLD  .                             FIELD : 
CNTY .                            COUNTY : 
STAT .                             STATE : 
DATE .                              DATE : 
SRVC .                   SERVICE COMPANY : 
UWI  .                               UWI : 
~Curve Information
#----------------------------------------------------------------
#MNEM.UNIT              API CODE           CURVE DESCRIPTION
#---------     -------------------------- -----------------------
DEPT .M                                  : 1  DEPTH
DS   .m                                  : BOREHOLE DIAMETER
DT   .                                   : ACOUSTIC dT
GK   .                                   : GAMMA RAYS
MGZ  .                                   : 
MPZ  .Ohmm                               : MICRO POTENTIAL LOG BORE
NGK  .                                   : 
PS   .                                   : SELF POLARIZATION
PZ   .Ohmm                               : POTENTIAL RESISTIVITY BORE
~Parameter Information
#----------------------------------------------------------------
#MNEM.UNIT               VALUE             PARAMETER DESCRIPTION
#---------     -------------------------- -----------------------
EKB  .M                                0 : Elevation,Kelly Bushing
TDL  .M                            -9999 : Total Depth-Logger
RMF  .OHMM                         -9999 : Mud Filtrate Resistivity
MFST .DEGC                         -9999 : Mud Filtrate Sample Temperature
BS   .MM                           -9999 : Bit Size
BHT  .DEGC                         -9999 : Bottom Hole Temp.(Max Temp)
AVST .DEGC                         -9999 : Average Surface Temperature
DFD  .G/S3                         -9999 : Drilling Fluid Density
~Other Information
#----------------------------------------------------------------

#----------------------------------------------------------------
#    Depth        DS        DT        GK       MGZ       MPZ       NGK        PS        PZ
~ASCII Log Data
# ...
 3202.4000     0.146   269.002    11.903     0.370      1.24     1.569    73.597      9.60
 3202.5000     0.150   272.380    11.753     0.363      0.74     1.574    72.652      9.59
 3202.6000     0.155   275.759    11.602     0.357      0.24     1.579    71.707      9.58
 3202.7000     0.160   278.257    11.295     0.326      0.24     1.586    70.728      9.28
 3202.8000     0.164   280.755    10.988     0.294      0.24     1.592    69.748      8.99
 3202.9000     0.162   281.945    10.823     0.302      0.28     1.586    69.001      8.70
 3203.0000     0.161   283.136    10.659     0.310      0.33     1.580    68.254      8.41
 3203.1000     0.162   283.911    10.812     0.310      0.35     1.566    67.708      8.38
 3203.2000     0.164   284.687    10.964     0.310      0.37     1.553    67.163      8.34
 3203.3000     0.172   286.047    11.209     0.297      0.36     1.546    66.801      8.33
 3203.4000     0.181   287.407    11.455     0.284      0.35     1.538    66.440      8.32
 3203.5000     0.182   289.138    11.493     0.284      0.31     1.538    66.115      8.28
 3203.6000     0.183   290.868    11.531     0.284      0.27     1.538    65.789      8.25
 3203.7000     0.183   290.932    11.426     0.265      0.27     1.538    65.508      8.16
 3203.8000     0.184   290.996    11.321     0.246      0.27     1.538    65.227      8.07
 3203.9000     0.185   288.807    11.338     0.250      0.31     1.541    64.995      7.93
 3204.0000     0.187   286.618    11.355     0.253      0.34     1.544    64.764      7.80
 3204.1000     0.184   283.546    11.468     0.257      0.36     1.553    64.537      7.69
 3204.2000     0.181   280.473    11.581     0.260      0.37     1.562    64.311      7.58
 3204.3000     0.179   277.204    11.738     0.263      0.37     1.571    64.141      7.52
 3204.4000     0.178   273.935    11.895     0.267      0.37     1.580    63.972      7.47
 3204.5000     0.176   271.017    11.955     0.271      0.37     1.586    63.889      7.47
 3204.6000     0.175   268.099    12.015     0.274      0.36     1.592    63.805      7.46
 3204.7000     0.178   265.588    11.901     0.277      0.34     1.592    63.717      7.46
 3204.8000     0.181   263.077    11.787     0.281      0.32     1.593    63.629      7.46
 3204.9000     0.184   261.726    11.703     0.304      0.30     1.589    63.491      7.48
 3205.0000     0.188   260.375    11.619     0.327      0.28     1.586    63.352      7.50
 3205.1000     0.189   259.775    11.691     0.348      0.28     1.590    63.267      7.55
 3205.2000     0.190   259.174    11.762     0.369      0.27     1.594    63.182      7.59
 3205.3000     0.192   257.635    11.899     0.369      0.34     1.599    63.204      7.62
 3205.4000     0.194   256.096    12.037     0.369      0.41     1.604    63.226      7.65
 3205.5000     0.194   253.861    12.191     0.369      0.47     1.604    63.286      7.64
 3205.6000     0.194   251.625    12.346     0.369      0.53     1.604    63.347      7.63
 3205.7000     0.191   250.551    12.566     0.369      0.42     1.597    63.399      7.59
 3205.8000     0.188   249.477    12.785     0.369      0.32     1.590    63.451      7.55
 3205.9000     0.184   250.544    12.941     0.369      0.28     1.573    63.448      7.59
 3206.0000     0.180   251.610    13.097     0.369      0.24     1.556    63.444      7.62
 3206.1000     0.180   253.755    13.034     0.353      0.25     1.550    63.375      7.70
 3206.2000     0.179   255.901    12.971     0.337      0.27     1.545    63.307      7.78
 3206.3000     0.181   257.607    12.915     0.346      0.28     1.550    63.059      7.81
 3206.4000     0.183   259.313    12.859     0.355      0.28     1.556    62.811      7.84
 3206.5000     0.182   260.202    12.872     0.378      0.28     1.563    62.401      7.89
 3206.6000     0.181   261.091    12.885     0.402      0.27     1.571    61.991      7.95
 3206.7000     0.181   261.953    12.770     0.398      0.26     1.582    61.579      8.05
 3206.8000     0.182   262.815    12.655     0.394      0.25     1.593    61.167      8.14
 3206.9000     0.183   263.719    12.439     0.390      0.25     1.596    60.751      8.05
 3207.0000     0.183   264.623    12.224     0.386      0.24     1.599    60.336      7.95
 3207.1000     0.178   265.156    12.031     0.382      0.32     1.592    59.918      7.89
 3207.2000     0.174   265.690    11.837     0.379      0.40     1.585    59.500      7.82
 3207.3000     0.172   265.902    11.754     0.354      0.42     1.579    59.083      7.94
 3207.4000     0.170   266.115    11.671     0.328      0.43     1.574    58.665      8.05
 3207.5000     0.175   266.005    11.743     0.294      0.41     1.575    58.247      8.16
 3207.6000     0.179   265.894    11.816     0.261      0.39     1.575    57.829      8.26
 3207.7000     0.182   265.080    12.024     0.294      0.38     1.579    57.429      8.34
 3207.8000     0.185   264.265    12.233     0.327      0.36     1.584    57.030      8.42
 3207.9000     0.183   262.393    12.450     0.366      0.35     1.592    56.648      8.47
 3208.0000     0.180   260.522    12.667     0.405      0.33     1.599    56.267      8.52
 3208.1000     0.179   258.020    12.708     0.398      0.37     1.599    56.000      8.59
 3208.2000     0.178   255.518    12.748     0.392      0.40     1.600    55.734      8.66
 3208.3000     0.176   252.929    12.755     0.386      0.37     1.600    55.688      8.80
 3208.4000     0.173   250.340    12.762     0.379      0.33     1.601    55.643      8.94
 3208.5000     0.170   247.691    12.918     0.359      0.34     1.612    55.866      9.14
 3208.6000     0.168   245.042    13.074     0.340      0.35     1.623    56.089      9.34
 3208.7000     0.169   242.292    13.316     0.339      0.33     1.638    56.540      9.48
 3208.8000     0.171   239.541    13.559     0.338      0.32     1.654    56.991      9.62
 3208.9000     0.170   236.509    13.640     0.322      0.28     1.669    57.528      9.55
 3209.0000     0.169   233.477    13.721     0.305      0.24     1.684    58.065      9.48
 3209.1000     0.160   230.528    13.415     0.354      0.18     1.688    58.782      9.42
 3209.2000     0.152   227.579    13.109     0.403      0.12     1.691    59.499      9.36
 3209.3000     0.143   226.327    12.898     0.404      1.29     1.684    60.345      9.50
 3209.4000     0.134   225.074    12.686     0.404      2.47     1.676    61.191      9.64
 3209.5000     0.133   226.081    12.778     0.324      3.14     1.676    61.427      9.82
 3209.6000     0.132   227.087    12.871     0.243      3.81     1.676    61.663     10.00
 3209.7000     0.132   229.184    12.981     0.289      2.33     1.681    61.317     10.03
 3209.8000     0.132   231.281    13.090     0.335      0.85     1.685    60.971     10.07
 3209.9000     0.131   233.923    13.225     0.456      0.95     1.679    60.622      9.98
 3210.0000     0.130   236.564    13.359     0.576      1.06     1.673    60.274      9.90
 3210.1000     0.130   239.924    13.507     0.624      2.98     1.666    59.917      9.93
 3210.2000     0.131   243.284    13.655     0.673      4.90     1.660    59.561      9.97
 3210.3000     0.132   246.530    13.705     0.610      4.06     1.653    59.362     10.06
 3210.4000     0.134   249.776    13.754     0.548      3.22     1.646    59.163     10.15
 3210.5000     0.136   251.763    13.737     0.469      3.01     1.635    59.153     10.17
 3210.6000     0.138   253.750    13.720     0.390      2.80     1.623    59.144     10.20
 3210.7000     0.141   254.836    13.747     0.301      1.94     1.614    59.161     10.15
 3210.8000     0.145   255.922    13.774     0.213      1.09     1.605    59.178     10.09
 3210.9000     0.146   255.502    13.810     0.185      0.88     1.601    59.195     10.03
 3211.0000     0.146   255.082    13.846     0.156      0.68     1.597    59.212      9.98
 3211.1000     0.146   252.790    13.851     0.186      1.01     1.596    59.229      9.96
