~Version Information
#----------------------------------------------------------------
VERS.             1.20: CWLS log ASCII Standard - VERSION 1.20
WRAP.              NO : One line per depth step
~Well Information
#----------------------------------------------------------------
#MNEM.UNIT             DATA TYPE           INFORMATION
#---------     -------------------------- -----------------------
STRT .M                             3088 : Start depth
STOP .M                        3450.8000 : Stop depth
STEP .M                           0.1000 : Step
NULL .                             -9999 : Null value
COMP .                           COMPANI : 
WELL .                              WELL :
FLD  .                             FIELD : 
CNTY .                            COUNTY : 
STAT .                             STATE : 
DATE .                              DATE : 
SRVC .                   SERVICE COMPANY : 
UWI  .                               UWI : 
~Curve Information
#----------------------------------------------------------------
#MNEM.UNIT              API CODE           CURVE DESCRIPTION
#---------     -------------------------- -----------------------
DEPT .M                                  : 1  DEPTH
DS   .m                                  : BOREHOLE DIAMETER
DT   .                                   : ACOUSTIC dT
GK   .                                   : GAMMA RAYS
MGZ  .                                   : 
MPZ  .Ohmm                               : MICRO POTENTIAL LOG BORE
NGK  .                                   : 
PS   .                                   : SELF POLARIZATION
PZ   .Ohmm                               : POTENTIAL RESISTIVITY BORE
~Parameter Information
#----------------------------------------------------------------
#MNEM.UNIT               VALUE             PARAMETER DESCRIPTION
#---------     -------------------------- -----------------------
EKB  .M                                0 : Elevation,Kelly Bushing
TDL  .M                            -9999 : Total Depth-Logger
RMF  .OHMM                         -9999 : Mud Filtrate Resistivity
MFST .DEGC                         -9999 : Mud Filtrate Sample Temperature
BS   .MM                           -9999 : Bit Size
BHT  .DEGC                         -9999 : Bottom Hole Temp.(Max Temp)
AVST .DEGC                         -9999 : Average Surface Temperature
DFD  .G/S3                         -9999 : Drilling Fluid Density
~Other Information
#----------------------------------------------------------------

#----------------------------------------------------------------
#    Depth        DS        DT        GK       MGZ       MPZ       NGK        PS        PZ
~ASCII Log Data
# ...
 3132.0000     0.206   261.607     9.270     0.377      0.25     1.703    64.704     11.95
 3132.1000     0.201   259.812     9.297     0.345      0.26     1.720    64.674     11.59
 3132.2000     0.196   258.017     9.324     0.314      0.27     1.738    64.645     11.24
 3132.3000     0.178   253.650     9.195     0.299      0.26     1.771    65.322     11.01
 3132.4000     0.160   249.284     9.066     0.285      0.26     1.805    65.998     10.77
 3132.5000     0.148   242.188     8.792     0.455      0.23     1.840    67.147     10.42
 3132.6000     0.137   235.092     8.519     0.625      0.21     1.875    68.296     10.07
 3132.7000     0.137   228.068     8.095     0.842      0.83     1.905    70.185      9.49
 3132.8000     0.137   221.043     7.672     1.060      1.45     1.934    72.074      8.92
 3132.9000     0.137   216.962     7.155     1.058      3.99     1.952    75.179      8.45
 3133.0000     0.138   212.881     6.638     1.056      6.54     1.971    78.284      7.99
 3133.1000     0.138   211.797     6.257     0.928      6.44     1.974    81.938      7.68
 3133.2000     0.138   210.713     5.877     0.799      6.34     1.977    85.591      7.37
 3133.3000     0.138   211.568     5.665     0.734      5.34     1.957    89.216      7.08
 3133.4000     0.138   212.424     5.452     0.668      4.34     1.938    92.841      6.79
 3133.5000     0.137   215.832     5.231     0.662      3.59     1.901    96.418      6.52
 3133.6000     0.137   219.241     5.009     0.656      2.84     1.863    99.994      6.25
 3133.7000     0.135   223.789     4.771     0.650      2.15     1.836   103.212      5.98
 3133.8000     0.134   228.337     4.534     0.645      1.46     1.810   106.430      5.71
 3133.9000     0.134   233.063     4.282     0.604      1.61     1.806   108.665      5.43
 3134.0000     0.133   237.789     4.030     0.562      1.75     1.802   110.900      5.16
 3134.1000     0.132   242.953     3.799     0.520      1.57     1.798   111.919      4.91
 3134.2000     0.132   248.117     3.568     0.477      1.39     1.794   112.937      4.66
 3134.3000     0.132   253.147     3.385     0.475      1.20     1.786   113.549      4.45
 3134.4000     0.131   258.177     3.203     0.473      1.01     1.779   114.162      4.24
 3134.5000     0.131   262.188     3.051     0.477      1.01     1.777   114.853      4.08
 3134.6000     0.131   266.198     2.899     0.481      1.01     1.775   115.543      3.92
 3134.7000     0.131   269.275     2.810     0.486      1.01     1.773   115.484      3.81
 3134.8000     0.131   272.352     2.722     0.490      1.01     1.771   115.424      3.69
 3134.9000     0.132   274.059     2.721     0.494      1.01     1.770   114.435      3.60
 3135.0000     0.132   275.766     2.720     0.498      1.01     1.768   113.446      3.50
 3135.1000     0.132   275.895     2.755     0.469      1.07     1.773   111.693      3.45
 3135.2000     0.132   276.023     2.791     0.440      1.12     1.778   109.941      3.41
 3135.3000     0.132   275.115     2.838     0.438      1.07     1.792   106.933      3.39
 3135.4000     0.131   274.207     2.884     0.436      1.01     1.806   103.925      3.37
 3135.5000     0.131   271.409     2.938     0.461      1.01     1.818    99.769      3.35
 3135.6000     0.131   268.610     2.991     0.487      1.01     1.830    95.612      3.33
 3135.7000     0.132   264.164     2.999     0.480      1.08     1.834    91.223      3.37
 3135.8000     0.132   259.717     3.007     0.474      1.14     1.838    86.835      3.41
 3135.9000     0.134   255.530     3.030     0.512      1.10     1.838    83.206      3.53
 3136.0000     0.135   251.343     3.053     0.549      1.06     1.838    79.577      3.64
 3136.1000     0.136   248.435     3.187     0.590      1.13     1.838    76.896      3.78
 3136.2000     0.137   245.527     3.321     0.630      1.20     1.838    74.215      3.92
 3136.3000     0.137   243.342     3.540     0.630      1.40     1.831    71.152      4.01
 3136.4000     0.137   241.158     3.759     0.630      1.61     1.824    68.090      4.09
 3136.5000     0.137   240.536     4.033     0.630      2.05     1.806    63.844      4.18
 3136.6000     0.136   239.915     4.307     0.630      2.49     1.788    59.598      4.26
 3136.7000     0.137   241.302     4.625     0.824      2.57     1.766    54.761      4.35
 3136.8000     0.137   242.689     4.943     1.018      2.64     1.744    49.925      4.43
 3136.9000     0.141   245.083     5.334     0.932      2.75     1.726    46.559      4.39
 3137.0000     0.145   247.478     5.726     0.845      2.86     1.708    43.193      4.36
 3137.1000     0.153   251.582     6.219     0.558      2.18     1.692    41.882      4.36
 3137.2000     0.162   255.686     6.711     0.271      1.50     1.677    40.572      4.36
 3137.3000     0.170   261.254     7.229     0.271      0.84     1.658    40.324      4.51
 3137.4000     0.178   266.821     7.747     0.271      0.18     1.638    40.076      4.66
 3137.5000     0.183   270.799     8.142     0.275      0.18     1.622    41.058      4.85
 3137.6000     0.187   274.778     8.537     0.280      0.18     1.607    42.039      5.04
 3137.7000     0.184   274.815     8.720     0.276      0.23     1.604    43.843      5.09
 3137.8000     0.181   274.852     8.904     0.272      0.29     1.601    45.648      5.13
 3137.9000     0.177   272.573     8.948     0.268      0.29     1.609    47.518      5.12
 3138.0000     0.174   270.295     8.992     0.263      0.29     1.616    49.387      5.11
 3138.1000     0.170   267.672     8.936     0.259      0.25     1.628    50.998      5.15
 3138.2000     0.166   265.049     8.880     0.255      0.20     1.640    52.609      5.20
 3138.3000     0.160   262.106     8.697     0.284      0.16     1.647    54.071      5.15
 3138.4000     0.155   259.163     8.514     0.313      0.13     1.654    55.532      5.10
 3138.5000     0.155   256.555     8.326     0.327      0.14     1.648    56.960      4.98
 3138.6000     0.156   253.946     8.138     0.341      0.16     1.641    58.388      4.87
 3138.7000     0.155   252.422     8.032     0.322      0.18     1.628    59.841      4.83
 3138.8000     0.154   250.897     7.926     0.304      0.20     1.615    61.294      4.79
 3138.9000     0.151   250.083     7.774     0.290      0.22     1.618    62.694      4.90
 3139.0000     0.148   249.270     7.623     0.276      0.23     1.620    64.094      5.01
 3139.1000     0.145   248.878     7.410     0.393      0.27     1.636    64.891      5.09
 3139.2000     0.142   248.485     7.196     0.510      0.31     1.652    65.687      5.16
 3139.3000     0.139   248.906     7.083     0.709      0.36     1.662    65.904      5.11
 3139.4000     0.137   249.328     6.971     0.909      0.41     1.673    66.121      5.06
 3139.5000     0.137   251.049     6.994     0.905      0.51     1.672    65.941      4.95
 3139.6000     0.138   252.771     7.017     0.902      0.61     1.671    65.761      4.84
 3139.7000     0.144   258.573     7.194     0.708      0.69     1.668    65.473      4.72
 3139.8000     0.149   264.374     7.370     0.514      0.78     1.665    65.184      4.60
 3139.9000     0.156   273.462     7.698     0.412      0.77     1.669    65.235      4.58
 3140.0000     0.163   282.550     8.026     0.310      0.76     1.673    65.286      4.56
 3140.1000     0.165   291.138     8.425     0.340      0.53     1.688    65.462      4.58
 3140.2000     0.167   299.727     8.824     0.371      0.31     1.704    65.637      4.60
 3140.3000     0.170   307.666     9.178     0.346      0.29     1.734    65.879      4.57
 3140.4000     0.173   315.605     9.532     0.322      0.27     1.764    66.121      4.53
 3140.5000     0.181   317.846     9.726     0.286      0.29     1.801    67.133      4.47
 3140.6000     0.190   320.088     9.919     0.250      0.31     1.837    68.145      4.40
 3140.7000     0.199   316.781     9.974     0.218      0.34     1.879    69.912      4.46
