~Version Information
#----------------------------------------------------------------
VERS.             1.20: CWLS log ASCII Standard - VERSION 1.20
WRAP.              NO : One line per depth step
~Well Information
#----------------------------------------------------------------
#MNEM.UNIT             DATA TYPE           INFORMATION
#---------     -------------------------- -----------------------
STRT .M                             3088 : Start depth
STOP .M                        3450.8000 : Stop depth
STEP .M                           0.1000 : Step
NULL .                             -9999 : Null value
COMP .                           COMPANI : 
WELL .                              WELL :
FLD  .                             FIELD : 
CNTY .                            COUNTY : 
STAT .                             STATE : 
DATE .                              DATE : 
SRVC .                   SERVICE COMPANY : 
UWI  .                               UWI : 
~Curve Information
#----------------------------------------------------------------
#MNEM.UNIT              API CODE           CURVE DESCRIPTION
#---------     -------------------------- -----------------------
DEPT .M                                  : 1  DEPTH
DS   .m                                  : BOREHOLE DIAMETER
DT   .                                   : ACOUSTIC dT
GK   .                                   : GAMMA RAYS
MGZ  .                                   : 
MPZ  .Ohmm                               : MICRO POTENTIAL LOG BORE
NGK  .                                   : 
PS   .                                   : SELF POLARIZATION
PZ   .Ohmm                               : POTENTIAL RESISTIVITY BORE
~Parameter Information
#----------------------------------------------------------------
#MNEM.UNIT               VALUE             PARAMETER DESCRIPTION
#---------     -------------------------- -----------------------
EKB  .M                                0 : Elevation,Kelly Bushing
TDL  .M                            -9999 : Total Depth-Logger
RMF  .OHMM                         -9999 : Mud Filtrate Resistivity
MFST .DEGC                         -9999 : Mud Filtrate Sample Temperature
BS   .MM                           -9999 : Bit Size
BHT  .DEGC                         -9999 : Bottom Hole Temp.(Max Temp)
AVST .DEGC                         -9999 : Average Surface Temperature
DFD  .G/S3                         -9999 : Drilling Fluid Density
~Other Information
#----------------------------------------------------------------

#----------------------------------------------------------------
#    Depth        DS        DT        GK       MGZ       MPZ       NGK        PS        PZ
~ASCII Log Data
# ...
 3413.6000     0.149   250.108     7.304     0.349      2.92     1.628    85.417      6.36
 3413.7000     0.176   255.877     7.800     0.236      1.87     1.625    85.667      6.25
 3413.8000     0.204   261.646     8.297     0.123      0.82     1.622    85.916      6.14
 3413.9000     0.233   267.962     8.681     0.143      0.51     1.621    85.698      6.26
 3414.0000     0.262   274.279     9.066     0.163      0.20     1.620    85.480      6.37
 3414.1000     0.271   279.614     9.246     0.157      0.19     1.638    85.064      6.30
 3414.2000     0.281   284.949     9.426     0.151      0.18     1.657    84.649      6.23
 3414.3000     0.282   287.766     9.501     0.119      0.19     1.687    83.900      6.14
 3414.4000     0.284   290.582     9.576     0.087      0.19     1.717    83.150      6.04
 3414.5000     0.287   291.213     9.609     0.107      0.19     1.736    82.185      5.95
 3414.6000     0.290   291.844     9.642     0.127      0.20     1.755    81.219      5.86
 3414.7000     0.292   292.153     9.617     0.127      0.22     1.765    80.238      5.78
 3414.8000     0.295   292.462     9.592     0.127      0.25     1.774    79.256      5.69
 3414.9000     0.291   292.177     9.406     0.107      0.26     1.782    78.213      5.73
 3415.0000     0.287   291.892     9.219     0.087      0.28     1.789    77.170      5.76
 3415.1000     0.284   291.266     8.960     0.087     -9999     1.799    75.909      5.85
 3415.2000     0.281   290.640     8.702     0.087     -9999     1.808    74.648      5.93
 3415.3000     0.290   289.282     8.641     0.087     -9999     1.816    73.225      6.01
 3415.4000     0.299   287.924     8.579     0.087     -9999     1.825    71.801      6.09
 3415.5000     0.308   284.901     8.735     0.087     -9999     1.824    70.660      6.17
 3415.6000     0.316   281.879     8.890     0.087     -9999     1.823    69.519      6.25
 3415.7000     0.319   278.137     9.089     0.087     -9999     1.808    68.649      6.34
 3415.8000     0.321   274.395     9.287     0.087     -9999     1.793    67.780      6.43
 3415.9000     0.320   271.574     9.472     -9999     -9999     1.783    66.858      6.56
 3416.0000     0.319   268.754     9.658     -9999     -9999     1.772    65.937      6.70
 3416.1000     0.315   266.977     9.750     -9999     -9999     1.776    64.945      6.90
 3416.2000     0.310   265.200     9.843     -9999     -9999     1.779    63.953      7.11
 3416.3000     0.298   264.705     9.714     -9999     -9999     1.782    63.235      7.38
 3416.4000     0.285   264.210     9.584     -9999     -9999     1.784    62.517      7.64
 3416.5000     0.259   265.435     9.357     -9999     -9999     1.784    62.169      8.06
 3416.6000     0.233   266.661     9.130     -9999     -9999     1.784    61.822      8.47
 3416.7000     0.208   268.724     8.996     -9999     -9999     1.788    61.646      9.11
 3416.8000     0.183   270.788     8.861     -9999     -9999     1.791    61.471      9.75
 3416.9000     0.174   272.283     8.804     -9999     -9999     1.798    61.389     10.41
 3417.0000     0.166   273.778     8.747     -9999     -9999     1.805    61.306     11.07
 3417.1000     0.162   273.507     8.733     -9999     -9999     1.817    61.351     11.52
 3417.2000     0.159   273.236     8.718     -9999     -9999     1.829    61.395     11.98
 3417.3000     0.156   271.901     8.784     -9999     -9999     1.842    61.627     12.24
 3417.4000     0.153   270.565     8.850     -9999     -9999     1.854    61.859     12.51
 3417.5000     0.152   268.896     8.929     -9999     -9999     1.868    62.308     12.56
 3417.6000     0.151   267.227     9.007     -9999     -9999     1.883    62.757     12.60
 3417.7000     0.149   264.270     9.017     -9999     -9999     1.905    63.382     12.58
 3417.8000     0.148   261.312     9.028     -9999     -9999     1.926    64.007     12.56
 3417.9000     0.148   257.385     8.962     -9999     -9999     1.947    64.653     12.63
 3418.0000     0.147   253.458     8.895     -9999     -9999     1.968    65.299     12.70
 3418.1000     0.148   249.766     8.764     -9999     -9999     1.982    65.926     12.59
 3418.2000     0.148   246.074     8.633     -9999     -9999     1.996    66.552     12.48
 3418.3000     0.148   242.112     8.448     -9999     -9999     2.003    67.020     12.20
 3418.4000     0.147   238.149     8.264     -9999     -9999     2.011    67.488     11.92
 3418.5000     0.146   233.513     8.078     -9999     -9999     2.013    67.939     11.63
 3418.6000     0.145   228.876     7.893     -9999     -9999     2.015    68.391     11.34
 3418.7000     0.145   226.396     7.717     -9999     -9999     2.019    68.986     11.10
 3418.8000     0.145   223.916     7.541     -9999     -9999     2.023    69.581     10.86
 3418.9000     0.145   224.510     7.316     -9999     -9999     2.026    70.199     10.61
 3419.0000     0.145   225.104     7.091     -9999     -9999     2.030    70.817     10.36
 3419.1000     0.145   226.452     6.804     -9999     -9999     2.035    71.038     10.15
 3419.2000     0.145   227.800     6.516     -9999     -9999     2.039    71.260      9.94
 3419.3000     0.146   229.165     6.268     -9999     -9999     2.049    70.729      9.78
 3419.4000     0.146   230.530     6.021     -9999     -9999     2.059    70.199      9.62
 3419.5000     0.146   231.874     5.959     -9999     -9999     2.062    69.598      9.51
 3419.6000     0.146   233.218     5.898     -9999     -9999     2.064    68.998      9.40
 3419.7000     0.146   234.245     5.927     -9999     -9999     2.060    68.889      9.40
 3419.8000     0.146   235.271     5.956     -9999     -9999     2.056    68.779      9.41
 3419.9000     0.146   235.158     5.903     -9999     -9999     2.056    68.720      9.43
 3420.0000     0.146   235.044     5.849     -9999     -9999     2.056    68.661      9.45
 3420.1000     0.146   234.137     5.748     -9999     -9999     2.057    68.288      9.48
 3420.2000     0.146   233.230     5.648     -9999     -9999     2.058    67.915      9.50
 3420.3000     0.145   232.331     5.599     -9999     -9999     2.062    67.264      9.57
 3420.4000     0.143   231.433     5.550     -9999     -9999     2.066    66.612      9.65
 3420.5000     0.143   230.350     5.542     -9999     -9999     2.075    65.870      9.74
 3420.6000     0.142   229.268     5.534     -9999     -9999     2.084    65.129      9.84
 3420.7000     0.142   228.040     5.407     -9999     -9999     2.096    64.650      9.89
 3420.8000     0.142   226.813     5.280     -9999     -9999     2.108    64.172      9.93
 3420.9000     0.141   226.267     4.968     -9999     -9999     2.125    64.175      9.94
 3421.0000     0.141   225.720     4.655     -9999     -9999     2.142    64.178      9.96
 3421.1000     0.139   225.880     4.260     -9999     -9999     2.160    64.044      9.98
 3421.2000     0.138   226.039     3.864     -9999     -9999     2.177    63.909      9.99
 3421.3000     0.137   226.390     3.590     -9999     -9999     2.184    63.305     10.06
 3421.4000     0.137   226.741     3.316     -9999     -9999     2.192    62.700     10.13
 3421.5000     0.136   227.844     3.276     -9999     -9999     2.188    62.358     10.26
 3421.6000     0.135   228.946     3.236     -9999     -9999     2.183    62.016     10.38
 3421.7000     0.135   230.691     3.351     -9999     -9999     2.181    62.105     10.59
 3421.8000     0.135   232.437     3.465     -9999     -9999     2.179    62.194     10.80
 3421.9000     0.135   234.279     3.609     -9999     -9999     2.185    62.733     11.02
 3422.0000     0.135   236.121     3.752     -9999     -9999     2.191    63.272     11.24
 3422.1000     0.135   237.572     3.852     -9999     -9999     2.196    64.302     11.39
 3422.2000     0.135   239.023     3.952     -9999     -9999     2.202    65.332     11.54
 3422.3000     0.135   239.850     4.069     -9999     -9999     2.201    66.771     11.65
