~Version Information
#----------------------------------------------------------------
VERS.             1.20: CWLS log ASCII Standard - VERSION 1.20
WRAP.              NO : One line per depth step
~Well Information
#----------------------------------------------------------------
#MNEM.UNIT             DATA TYPE           INFORMATION
#---------     -------------------------- -----------------------
STRT .M                             3088 : Start depth
STOP .M                        3450.8000 : Stop depth
STEP .M                           0.1000 : Step
NULL .                             -9999 : Null value
COMP .                           COMPANI : 
WELL .                              WELL :
FLD  .                             FIELD : 
CNTY .                            COUNTY : 
STAT .                             STATE : 
DATE .                              DATE : 
SRVC .                   SERVICE COMPANY : 
UWI  .                               UWI : 
~Curve Information
#----------------------------------------------------------------
#MNEM.UNIT              API CODE           CURVE DESCRIPTION
#---------     -------------------------- -----------------------
DEPT .M                                  : 1  DEPTH
DS   .m                                  : BOREHOLE DIAMETER
DT   .                                   : ACOUSTIC dT
GK   .                                   : GAMMA RAYS
MGZ  .                                   : 
MPZ  .Ohmm                               : MICRO POTENTIAL LOG BORE
NGK  .                                   : 
PS   .                                   : SELF POLARIZATION
PZ   .Ohmm                               : POTENTIAL RESISTIVITY BORE
~Parameter Information
#----------------------------------------------------------------
#MNEM.UNIT               VALUE             PARAMETER DESCRIPTION
#---------     -------------------------- -----------------------
EKB  .M                                0 : Elevation,Kelly Bushing
TDL  .M                            -9999 : Total Depth-Logger
RMF  .OHMM                         -9999 : Mud Filtrate Resistivity
MFST .DEGC                         -9999 : Mud Filtrate Sample Temperature
BS   .MM                           -9999 : Bit Size
BHT  .DEGC                         -9999 : Bottom Hole Temp.(Max Temp)
AVST .DEGC                         -9999 : Average Surface Temperature
DFD  .G/S3                         -9999 : Drilling Fluid Density
~Other Information
#----------------------------------------------------------------

#----------------------------------------------------------------
#    Depth        DS        DT        GK       MGZ       MPZ       NGK        PS        PZ
~ASCII Log Data
# ...
 3228.8000     0.134   243.724    13.937     0.871      9.14     1.653    81.527     14.60
 3228.9000     0.134   243.781    13.720     0.804      7.53     1.638    81.529     14.63
 3229.0000     0.134   243.838    13.504     0.738      5.93     1.623    81.531     14.66
 3229.1000     0.134   244.982    13.474     0.733      6.06     1.611    81.800     14.68
 3229.2000     0.134   246.126    13.444     0.728      6.19     1.599    82.069     14.71
 3229.3000     0.134   247.443    13.608     0.722      5.74     1.590    82.089     14.61
 3229.4000     0.134   248.759    13.772     0.717      5.30     1.582    82.109     14.51
 3229.5000     0.134   249.599    13.931     0.730      5.50     1.582    82.129     14.35
 3229.6000     0.134   250.439    14.091     0.743      5.70     1.582    82.149     14.19
 3229.7000     0.134   251.049    14.157     0.767      5.73     1.590    82.169     14.15
 3229.8000     0.134   251.660    14.224     0.791      5.77     1.598    82.189     14.12
 3229.9000     0.134   252.214    14.219     0.742      4.82     1.599    82.209     14.14
 3230.0000     0.134   252.768    14.214     0.693      3.88     1.601    82.229     14.15
 3230.1000     0.134   253.323    14.135     0.635      3.86     1.605    81.947     14.16
 3230.2000     0.134   253.878    14.057     0.577      3.83     1.609    81.666     14.18
 3230.3000     0.134   254.212    13.970     0.577      4.39     1.615    81.364     14.06
 3230.4000     0.134   254.547    13.883     0.577      4.94     1.620    81.062     13.94
 3230.5000     0.134   255.173    13.897     0.577      4.57     1.622    81.064     13.83
 3230.6000     0.134   255.798    13.911     0.577      4.19     1.623    81.066     13.73
 3230.7000     0.134   256.573    13.974     0.605      4.49     1.617    81.092     13.78
 3230.8000     0.134   257.348    14.037     0.633      4.79     1.611    81.118     13.83
 3230.9000     0.134   258.188    14.049     0.638      4.98     1.606    81.144     13.88
 3231.0000     0.134   259.028    14.061     0.644      5.17     1.601    81.170     13.92
 3231.1000     0.134   259.619    14.021     0.669      5.32     1.605    81.386     13.97
 3231.2000     0.134   260.210    13.981     0.693      5.47     1.608    81.603     14.02
 3231.3000     0.134   260.156    13.998     0.770      5.74     1.617    81.780     13.88
 3231.4000     0.134   260.102    14.015     0.847      6.02     1.626    81.957     13.73
 3231.5000     0.134   260.048    14.104     0.855      6.26     1.632    81.840     13.56
 3231.6000     0.134   259.995    14.194     0.864      6.49     1.638    81.722     13.39
 3231.7000     0.134   260.000    14.238     0.824      7.09     1.637    81.547     13.39
 3231.8000     0.134   260.005    14.282     0.783      7.68     1.636    81.372     13.38
 3231.9000     0.134   260.216    14.275     0.728      6.69     1.637    81.288     13.37
 3232.0000     0.134   260.428    14.269     0.673      5.71     1.637    81.205     13.36
 3232.1000     0.134   260.667    14.362     0.674      5.22     1.630    81.206     13.35
 3232.2000     0.134   260.905    14.455     0.676      4.74     1.623    81.206     13.35
 3232.3000     0.134   261.224    14.519     0.759      4.78     1.608    81.206     13.35
 3232.4000     0.134   261.544    14.584     0.842      4.83     1.593    81.206     13.34
 3232.5000     0.134   261.977    14.418     0.968      5.13     1.585    81.206     13.33
 3232.6000     0.134   262.410    14.253     1.094      5.42     1.577    81.206     13.32
 3232.7000     0.134   262.152    14.177     1.023      7.05     1.577    81.206     13.32
 3232.8000     0.134   261.895    14.101     0.953      8.67     1.577    81.206     13.31
 3232.9000     0.134   261.257    14.313     0.798      7.34     1.569    81.206     13.31
 3233.0000     0.134   260.619    14.524     0.643      6.00     1.562    81.207     13.30
 3233.1000     0.134   260.386    14.687     0.678      5.62     1.558    81.207     13.30
 3233.2000     0.134   260.154    14.849     0.712      5.24     1.553    81.207     13.29
 3233.3000     0.134   259.707    14.757     0.714      5.04     1.560    81.207     13.30
 3233.4000     0.134   259.260    14.665     0.715      4.84     1.568    81.207     13.31
 3233.5000     0.134   258.598    14.327     0.712      4.89     1.567    81.208     13.22
 3233.6000     0.134   257.935    13.989     0.710      4.94     1.566    81.208     13.13
 3233.7000     0.134   257.961    13.761     0.704      5.54     1.559    81.208     13.07
 3233.8000     0.134   257.986    13.533     0.697      6.14     1.553    81.208     13.01
 3233.9000     0.134   258.414    13.658     0.658      5.76     1.559    81.208     12.95
 3234.0000     0.134   258.842    13.783     0.619      5.37     1.566    81.208     12.89
 3234.1000     0.134   259.242    13.916     0.592      4.72     1.572    81.098     12.81
 3234.2000     0.134   259.643    14.049     0.566      4.07     1.577    80.987     12.73
 3234.3000     0.134   260.445    14.066     0.597      3.40     1.572    80.829     12.78
 3234.4000     0.134   261.248    14.083     0.629      2.73     1.566    80.672     12.83
 3234.5000     0.134   262.122    14.120     0.687      3.93     1.551    80.625     12.88
 3234.6000     0.134   262.997    14.157     0.745      5.14     1.537    80.578     12.92
 3234.7000     0.134   263.265    14.078     0.745      5.49     1.530    80.578     12.95
 3234.8000     0.134   263.532    13.999     0.745      5.84     1.522    80.578     12.99
 3234.9000     0.134   263.477    13.649     0.745      5.89     1.529    80.578     13.00
 3235.0000     0.134   263.422    13.299     0.745      5.94     1.536    80.578     13.01
 3235.1000     0.134   263.737    13.142     0.715      5.89     1.538    80.579     13.01
 3235.2000     0.134   264.053    12.984     0.685      5.83     1.540    80.579     13.01
 3235.3000     0.134   264.573    13.255     0.658      5.51     1.544    80.579     13.01
 3235.4000     0.134   265.092    13.526     0.630      5.19     1.549    80.579     13.01
 3235.5000     0.134   265.393    13.899     0.635      4.78     1.553    80.579     13.01
 3235.6000     0.134   265.694    14.272     0.641      4.38     1.556    80.579     13.01
 3235.7000     0.134   265.850    14.438     0.647      4.19     1.552    80.579     13.01
 3235.8000     0.134   266.006    14.605     0.653      4.00     1.547    80.580     13.01
 3235.9000     0.134   266.374    14.466     0.614      4.01     1.543    80.580     13.01
 3236.0000     0.135   266.742    14.327     0.575      4.02     1.540    80.580     13.01
 3236.1000     0.135   267.084    14.082     0.565      4.18     1.546    80.580     13.01
 3236.2000     0.135   267.426    13.836     0.555      4.35     1.552    80.580     13.01
 3236.3000     0.135   267.143    13.702     0.586      4.53     1.563    80.581     13.01
 3236.4000     0.135   266.860    13.568     0.618      4.71     1.574    80.581     13.01
 3236.5000     0.136   266.623    13.584     0.618      4.60     1.579    80.581     13.01
 3236.6000     0.136   266.386    13.601     0.618      4.48     1.583    80.581     13.01
 3236.7000     0.136   265.646    13.627     0.618      4.51     1.574    80.643     13.11
 3236.8000     0.136   264.906    13.652     0.618      4.54     1.566    80.704     13.21
 3236.9000     0.136   263.930    13.611     0.633      4.71     1.556    80.915     13.31
 3237.0000     0.136   262.953    13.570     0.648      4.88     1.545    81.125     13.41
 3237.1000     0.136   262.413    13.615     0.648      4.60     1.543    81.274     13.42
 3237.2000     0.136   261.872    13.660     0.648      4.31     1.542    81.423     13.43
 3237.3000     0.136   261.315    13.782     0.633      4.36     1.551    81.423     13.44
 3237.4000     0.136   260.759    13.904     0.618      4.40     1.559    81.423     13.45
 3237.5000     0.136   260.409    13.944     0.650      4.62     1.567    81.424     13.45
