~Version Information
#----------------------------------------------------------------
VERS.             1.20: CWLS log ASCII Standard - VERSION 1.20
WRAP.              NO : One line per depth step
~Well Information
#----------------------------------------------------------------
#MNEM.UNIT             DATA TYPE           INFORMATION
#---------     -------------------------- -----------------------
STRT .M                             3088 : Start depth
STOP .M                        3450.8000 : Stop depth
STEP .M                           0.1000 : Step
NULL .                             -9999 : Null value
COMP .                           COMPANI : 
WELL .                              WELL :
FLD  .                             FIELD : 
CNTY .                            COUNTY : 
STAT .                             STATE : 
DATE .                              DATE : 
SRVC .                   SERVICE COMPANY : 
UWI  .                               UWI : 
~Curve Information
#----------------------------------------------------------------
#MNEM.UNIT              API CODE           CURVE DESCRIPTION
#---------     -------------------------- -----------------------
DEPT .M                                  : 1  DEPTH
DS   .m                                  : BOREHOLE DIAMETER
DT   .                                   : ACOUSTIC dT
GK   .                                   : GAMMA RAYS
MGZ  .                                   : 
MPZ  .Ohmm                               : MICRO POTENTIAL LOG BORE
NGK  .                                   : 
PS   .                                   : SELF POLARIZATION
PZ   .Ohmm                               : POTENTIAL RESISTIVITY BORE
~Parameter Information
#----------------------------------------------------------------
#MNEM.UNIT               VALUE             PARAMETER DESCRIPTION
#---------     -------------------------- -----------------------
EKB  .M                                0 : Elevation,Kelly Bushing
TDL  .M                            -9999 : Total Depth-Logger
RMF  .OHMM                         -9999 : Mud Filtrate Resistivity
MFST .DEGC                         -9999 : Mud Filtrate Sample Temperature
BS   .MM                           -9999 : Bit Size
BHT  .DEGC                         -9999 : Bottom Hole Temp.(Max Temp)
AVST .DEGC                         -9999 : Average Surface Temperature
DFD  .G/S3                         -9999 : Drilling Fluid Density
~Other Information
#----------------------------------------------------------------

#----------------------------------------------------------------
#    Depth        DS        DT        GK       MGZ       MPZ       NGK        PS        PZ
~ASCII Log Data
# ...
 3396.0000     0.209   291.491    11.177     0.152      0.11     1.601    99.536      6.55
 3396.1000     0.212   293.135    11.285     0.120      0.11     1.605    98.919      6.52
 3396.2000     0.215   294.780    11.393     0.089      0.12     1.609    98.301      6.49
 3396.3000     0.218   295.747    11.332     0.089      0.13     1.612    97.680      6.38
 3396.4000     0.221   296.714    11.270     0.089      0.13     1.614    97.058      6.27
 3396.5000     0.220   296.215    11.259     0.089      0.13     1.619    96.406      6.20
 3396.6000     0.218   295.716    11.247     0.089      0.14     1.625    95.753      6.13
 3396.7000     0.210   293.840    11.420     0.089      0.15     1.643    95.256      6.19
 3396.8000     0.202   291.964    11.594     0.089      0.15     1.661    94.758      6.25
 3396.9000     0.195   291.623    11.696     0.089      0.16     1.668    94.700      6.30
 3397.0000     0.188   291.283    11.798     0.089      0.16     1.674    94.641      6.35
 3397.1000     0.186   293.193    11.670     0.089      0.16     1.663    94.904      6.36
 3397.2000     0.184   295.102    11.541     0.089      0.17     1.651    95.168      6.37
 3397.3000     0.187   297.059    11.383     0.127      0.18     1.640    95.663      6.38
 3397.4000     0.190   299.016    11.225     0.164      0.19     1.628    96.158      6.39
 3397.5000     0.201   299.376    11.253     0.171      0.19     1.618    96.820      6.43
 3397.6000     0.213   299.737    11.280     0.178      0.18     1.608    97.483      6.48
 3397.7000     0.222   297.766    11.490     0.172      0.14     1.600    98.000      6.58
 3397.8000     0.230   295.794    11.701     0.167      0.10     1.592    98.517      6.68
 3397.9000     0.224   292.507    11.916     0.192      0.09     1.588    98.871      6.77
 3398.0000     0.218   289.220    12.131     0.216      0.09     1.584    99.226      6.87
 3398.1000     0.214   284.027    12.312     0.202      0.09     1.569    99.563      6.91
 3398.2000     0.210   278.834    12.493     0.188      0.09     1.555    99.900      6.96
 3398.3000     0.217   271.103    12.594     0.188      0.09     1.546   100.265      6.99
 3398.4000     0.224   263.371    12.694     0.188      0.09     1.538   100.630      7.01
 3398.5000     0.222   255.018    12.673     0.201      0.09     1.548   101.197      7.01
 3398.6000     0.219   246.666    12.652     0.215      0.09     1.558   101.763      7.01
 3398.7000     0.211   240.887    12.516     0.201      0.09     1.566   102.505      6.94
 3398.8000     0.203   235.109    12.380     0.186      0.09     1.573   103.247      6.87
 3398.9000     0.206   232.427    12.042     0.155      0.09     1.576   103.969      6.86
 3399.0000     0.209   229.745    11.705     0.125      0.09     1.580   104.691      6.85
 3399.1000     0.213   229.068    11.168     0.143      0.09     1.587   105.285      6.98
 3399.2000     0.217   228.391    10.632     0.161      0.09     1.594   105.878      7.11
 3399.3000     0.218   230.017    10.304     0.200      0.09     1.600   106.311      7.22
 3399.4000     0.220   231.643     9.975     0.239      0.09     1.606   106.743      7.33
 3399.5000     0.216   236.083    10.065     0.204      0.09     1.605   106.901      7.29
 3399.6000     0.213   240.522    10.154     0.169      0.09     1.604   107.059      7.25
 3399.7000     0.208   245.940    10.306     0.128      0.09     1.600   106.803      7.15
 3399.8000     0.203   251.358    10.457     0.088      0.09     1.596   106.548      7.05
 3399.9000     0.206   254.344    10.386     0.088      0.10     1.603   105.954      7.10
 3400.0000     0.210   257.331    10.315     0.088      0.11     1.611   105.360      7.15
 3400.1000     0.212   257.699    10.229     0.088      0.11     1.628   104.407      7.32
 3400.2000     0.214   258.067    10.144     0.088      0.12     1.645   103.454      7.49
 3400.3000     0.213   257.113    10.209     0.088      0.13     1.658   102.254      7.58
 3400.4000     0.211   256.160    10.275     0.088      0.13     1.672   101.053      7.67
 3400.5000     0.208   252.936    10.342     0.088      0.14     1.684   100.045      7.59
 3400.6000     0.205   249.713    10.410     0.088      0.15     1.697    99.036      7.51
 3400.7000     0.197   244.772    10.441     0.111      0.16     1.713    98.199      7.32
 3400.8000     0.188   239.832    10.471     0.133      0.16     1.729    97.361      7.14
 3400.9000     0.180   236.146    10.460     0.295      0.19     1.731    96.451      6.93
 3401.0000     0.172   232.460    10.449     0.457      0.22     1.734    95.541      6.72
 3401.1000     0.168   233.066    10.443     0.626      0.78     1.717    94.741      6.53
 3401.2000     0.164   233.672    10.437     0.794      1.34     1.701    93.941      6.34
 3401.3000     0.163   237.730    10.461     0.873      1.53     1.682    93.296      6.16
 3401.4000     0.162   241.789    10.485     0.953      1.72     1.663    92.650      5.99
 3401.5000     0.164   247.066    10.528     0.791      1.67     1.654    91.732      5.95
 3401.6000     0.167   252.344    10.571     0.628      1.62     1.645    90.814      5.91
 3401.7000     0.176   259.268    10.592     0.386      1.25     1.641    89.506      6.01
 3401.8000     0.185   266.193    10.613     0.144      0.88     1.636    88.198      6.12
 3401.9000     0.194   274.914    10.445     0.116      0.52     1.632    86.402      6.11
 3402.0000     0.204   283.636    10.278     0.088      0.17     1.629    84.607      6.11
 3402.1000     0.211   291.108     9.970     0.088      0.17     1.629    82.658      5.97
 3402.2000     0.218   298.580     9.662     0.088      0.17     1.629    80.708      5.82
 3402.3000     0.218   301.214     9.524     0.088      0.17     1.629    79.216      5.55
 3402.4000     0.219   303.849     9.386     0.088      0.17     1.629    77.725      5.28
 3402.5000     0.219   303.849     9.386     0.088      0.16     1.615    76.438      5.10
 3402.6000     0.219   303.849     9.387     0.088      0.16     1.602    75.150      4.91
 3402.7000     0.230   303.764     9.384     0.088      0.16     1.586    73.796      4.99
 3402.8000     0.242   303.680     9.380     0.088      0.16     1.570    72.442      5.07
 3402.9000     0.248   302.548     9.438     0.088      0.16     1.576    71.029      5.13
 3403.0000     0.255   301.416     9.497     0.088      0.16     1.581    69.617      5.19
 3403.1000     0.259   299.138     9.717     0.088      0.16     1.595    68.636      5.07
 3403.2000     0.263   296.860     9.937     0.088      0.15     1.609    67.655      4.95
 3403.3000     0.256   294.981    10.259     0.088      0.15     1.609    67.327      4.76
 3403.4000     0.249   293.102    10.581     0.088      0.15     1.610    66.999      4.58
 3403.5000     0.238   291.842    10.712     0.088      0.15     1.609    67.436      4.56
 3403.6000     0.228   290.583    10.842     0.088      0.15     1.607    67.873      4.54
 3403.7000     0.231   289.980    10.769     0.088      0.15     1.619    68.803      4.61
 3403.8000     0.235   289.378    10.696     0.088      0.15     1.632    69.732      4.67
 3403.9000     0.240   290.763    10.587     0.088      0.15     1.641    70.025      4.68
 3404.0000     0.245   292.148    10.479     0.088      0.14     1.650    70.317      4.68
 3404.1000     0.245   295.529    10.372     0.088      0.14     1.657    70.153      4.68
 3404.2000     0.245   298.910    10.265     0.088      0.14     1.664    69.989      4.68
 3404.3000     0.240   303.258    10.174     0.088      0.14     1.671    70.281      4.76
 3404.4000     0.234   307.607    10.083     0.088      0.14     1.678    70.573      4.83
 3404.5000     0.230   312.576    10.013     0.088      0.13     1.680    71.708      4.88
 3404.6000     0.227   317.544     9.943     0.088      0.13     1.682    72.842      4.92
 3404.7000     0.231   319.840     9.938     0.088      0.13     1.686    74.549      4.87
