~Version Information
#----------------------------------------------------------------
VERS.             1.20: CWLS log ASCII Standard - VERSION 1.20
WRAP.              NO : One line per depth step
~Well Information
#----------------------------------------------------------------
#MNEM.UNIT             DATA TYPE           INFORMATION
#---------     -------------------------- -----------------------
STRT .M                             3088 : Start depth
STOP .M                        3450.8000 : Stop depth
STEP .M                           0.1000 : Step
NULL .                             -9999 : Null value
COMP .                           COMPANI : 
WELL .                              WELL :
FLD  .                             FIELD : 
CNTY .                            COUNTY : 
STAT .                             STATE : 
DATE .                              DATE : 
SRVC .                   SERVICE COMPANY : 
UWI  .                               UWI : 
~Curve Information
#----------------------------------------------------------------
#MNEM.UNIT              API CODE           CURVE DESCRIPTION
#---------     -------------------------- -----------------------
DEPT .M                                  : 1  DEPTH
DS   .m                                  : BOREHOLE DIAMETER
DT   .                                   : ACOUSTIC dT
GK   .                                   : GAMMA RAYS
MGZ  .                                   : 
MPZ  .Ohmm                               : MICRO POTENTIAL LOG BORE
NGK  .                                   : 
PS   .                                   : SELF POLARIZATION
PZ   .Ohmm                               : POTENTIAL RESISTIVITY BORE
~Parameter Information
#----------------------------------------------------------------
#MNEM.UNIT               VALUE             PARAMETER DESCRIPTION
#---------     -------------------------- -----------------------
EKB  .M                                0 : Elevation,Kelly Bushing
TDL  .M                            -9999 : Total Depth-Logger
RMF  .OHMM                         -9999 : Mud Filtrate Resistivity
MFST .DEGC                         -9999 : Mud Filtrate Sample Temperature
BS   .MM                           -9999 : Bit Size
BHT  .DEGC                         -9999 : Bottom Hole Temp.(Max Temp)
AVST .DEGC                         -9999 : Average Surface Temperature
DFD  .G/S3                         -9999 : Drilling Fluid Density
~Other Information
#----------------------------------------------------------------

#----------------------------------------------------------------
#    Depth        DS        DT        GK       MGZ       MPZ       NGK        PS        PZ
~ASCII Log Data
# ...
 3255.2000     0.136   260.751    13.841     0.742      5.80     1.542    55.379     13.66
 3255.3000     0.136   259.815    13.804     0.742      5.14     1.554    54.226     13.66
 3255.4000     0.135   258.878    13.767     0.742      4.48     1.565    53.072     13.67
 3255.5000     0.134   257.378    13.848     0.742      4.66     1.573    52.062     13.68
 3255.6000     0.134   255.878    13.929     0.742      4.84     1.581    51.051     13.68
 3255.7000     0.134   255.191    13.873     0.750      5.45     1.571    50.265     13.68
 3255.8000     0.134   254.504    13.817     0.757      6.06     1.561    49.479     13.69
 3255.9000     0.134   253.966    13.677     0.725      6.56     1.555    48.813     13.69
 3256.0000     0.135   253.429    13.536     0.692      7.05     1.549    48.146     13.70
 3256.1000     0.136   253.006    13.523     0.684      6.47     1.553    47.599     13.70
 3256.2000     0.136   252.583    13.510     0.677      5.89     1.556    47.052     13.71
 3256.3000     0.136   253.151    13.533     0.709      5.97     1.563    46.661     13.72
 3256.4000     0.136   253.720    13.556     0.742      6.05     1.570    46.270     13.72
 3256.5000     0.136   254.504    13.563     0.750      5.80     1.579    46.106     13.73
 3256.6000     0.136   255.287    13.571     0.757      5.55     1.587    45.943     13.73
 3256.7000     0.136   255.724    13.665     0.757      5.24     1.586    45.978     13.73
 3256.8000     0.136   256.160    13.759     0.757      4.93     1.585    46.013     13.74
 3256.9000     0.136   256.263    13.820     0.750      5.13     1.587    46.184     13.74
 3257.0000     0.136   256.367    13.881     0.742      5.33     1.588    46.354     13.75
 3257.1000     0.136   255.948    13.771     0.742      5.59     1.591    46.750     13.76
 3257.2000     0.136   255.528    13.661     0.742      5.85     1.593    47.145     13.76
 3257.3000     0.136   255.203    13.462     0.742      5.95     1.589    47.659     13.77
 3257.4000     0.136   254.878    13.262     0.742      6.06     1.584    48.172     13.77
 3257.5000     0.136   254.816    12.948     0.742      5.79     1.577    48.625     13.77
 3257.6000     0.136   254.755    12.633     0.742      5.52     1.570    49.078     13.78
 3257.7000     0.136   254.129    12.118     0.742      5.45     1.567    49.363     13.78
 3257.8000     0.136   253.503    11.603     0.742      5.39     1.564    49.648     13.79
 3257.9000     0.136   252.380    11.211     0.742      5.48     1.572    49.847     13.83
 3258.0000     0.136   251.257    10.819     0.742      5.58     1.579    50.046     13.87
 3258.1000     0.136   249.560    11.142     0.683      5.65     1.589    50.111     14.03
 3258.2000     0.136   247.863    11.466     0.625      5.72     1.600    50.176     14.20
 3258.3000     0.136   245.848    12.276     0.701      5.28     1.599    50.069     14.34
 3258.4000     0.136   243.833    13.086     0.776      4.84     1.598    49.962     14.47
 3258.5000     0.137   241.685    13.670     0.943      3.60     1.590    49.582     14.43
 3258.6000     0.137   239.537    14.254     1.110      2.36     1.582    49.201     14.38
 3258.7000     0.137   237.603    14.428     1.041      4.82     1.575    48.586     14.30
 3258.8000     0.137   235.669    14.603     0.972      7.29     1.568    47.970     14.21
 3258.9000     0.136   234.861    14.523     0.822      7.26     1.568    47.319     14.09
 3259.0000     0.135   234.052    14.443     0.673      7.24     1.568    46.669     13.96
 3259.1000     0.136   234.669    14.339     0.632      6.22     1.583    45.978     13.76
 3259.2000     0.136   235.285    14.234     0.591      5.20     1.598    45.286     13.57
 3259.3000     0.137   237.538    14.271     0.624      4.02     1.607    44.587     13.43
 3259.4000     0.137   239.790    14.308     0.657      2.84     1.615    43.888     13.30
 3259.5000     0.137   242.763    14.366     0.689      3.76     1.602    43.110     13.26
 3259.6000     0.136   245.737    14.424     0.720      4.68     1.590    42.332     13.23
 3259.7000     0.136   247.808    14.347     0.753      4.76     1.576    41.436     13.22
 3259.8000     0.136   249.879    14.270     0.786      4.84     1.562    40.539     13.20
 3259.9000     0.136   251.060    14.205     0.756      5.07     1.563    39.617     13.18
 3260.0000     0.136   252.240    14.141     0.726      5.30     1.563    38.694     13.17
 3260.1000     0.136   253.133    14.221     0.701      5.27     1.577    37.797     13.16
 3260.2000     0.136   254.027    14.301     0.675      5.23     1.592    36.899     13.15
 3260.3000     0.136   254.706    14.452     0.676      5.30     1.606    36.117     13.15
 3260.4000     0.136   255.384    14.604     0.678      5.36     1.620    35.335     13.14
 3260.5000     0.136   255.708    14.605     0.609      5.49     1.627    34.817     13.20
 3260.6000     0.136   256.032    14.606     0.539      5.61     1.633    34.299     13.27
 3260.7000     0.137   255.959    14.408     0.550      3.72     1.635    34.001     13.20
 3260.8000     0.137   255.886    14.210     0.561      1.83     1.637    33.704     13.14
 3260.9000     0.137   255.010    14.121     0.631      2.54     1.646    33.587     13.02
 3261.0000     0.137   254.134    14.032     0.701      3.25     1.656    33.470     12.89
 3261.1000     0.137   253.064    14.230     0.748      4.34     1.660    33.608     12.89
 3261.2000     0.136   251.993    14.428     0.796      5.42     1.664    33.746     12.89
 3261.3000     0.136   251.464    14.644     0.847      5.46     1.662    34.179     12.89
 3261.4000     0.136   250.934    14.859     0.898      5.50     1.660    34.613     12.89
 3261.5000     0.136   250.566    14.792     0.870      6.93     1.661    35.276     12.89
 3261.6000     0.135   250.197    14.725     0.843      8.35     1.662    35.939     12.89
 3261.7000     0.135   249.658    14.352     0.792      7.27     1.674    36.745     12.89
 3261.8000     0.135   249.118    13.979     0.741      6.18     1.687    37.551     12.89
 3261.9000     0.135   248.776    13.246     0.771      5.71     1.713    38.427     12.93
 3262.0000     0.135   248.435    12.512     0.800      5.24     1.738    39.304     12.98
 3262.1000     0.135   247.867    11.578     0.830      5.35     1.769    40.080     13.11
 3262.2000     0.135   247.299    10.644     0.860      5.46     1.799    40.856     13.24
 3262.3000     0.135   245.588     9.910     0.849      5.14     1.829    41.516     13.33
 3262.4000     0.135   243.877     9.177     0.838      4.83     1.859    42.176     13.42
 3262.5000     0.136   241.325     8.830     0.806      4.91     1.882    42.932     13.43
 3262.6000     0.136   238.773     8.484     0.773      5.00     1.904    43.688     13.45
 3262.7000     0.136   236.008     8.338     0.727      4.23     1.908    44.819     13.25
 3262.8000     0.136   233.244     8.192     0.680      3.46     1.911    45.950     13.05
 3262.9000     0.136   230.340     8.054     0.747      2.37     1.899    47.766     12.70
 3263.0000     0.135   227.436     7.915     0.813      1.27     1.887    49.582     12.35
 3263.1000     0.135   224.720     7.640     0.822      3.00     1.891    51.568     12.06
 3263.2000     0.135   222.003     7.365     0.831      4.73     1.894    53.553     11.76
 3263.3000     0.135   220.662     6.787     0.704      4.88     1.912    55.285     11.50
 3263.4000     0.135   219.321     6.209     0.577      5.02     1.930    57.016     11.24
 3263.5000     0.135   219.270     5.615     0.532      3.64     1.945    58.741     11.05
 3263.6000     0.135   219.218     5.020     0.487      2.27     1.960    60.465     10.85
 3263.7000     0.136   219.458     4.728     0.484      2.62     1.976    62.174     10.81
 3263.8000     0.136   219.698     4.436     0.481      2.97     1.991    63.884     10.76
 3263.9000     0.136   220.043     4.382     0.506      2.54     2.012    65.409     10.88
