~Version Information
#----------------------------------------------------------------
VERS.             1.20: CWLS log ASCII Standard - VERSION 1.20
WRAP.              NO : One line per depth step
~Well Information
#----------------------------------------------------------------
#MNEM.UNIT             DATA TYPE           INFORMATION
#---------     -------------------------- -----------------------
STRT .M                             3088 : Start depth
STOP .M                        3450.8000 : Stop depth
STEP .M                           0.1000 : Step
NULL .                             -9999 : Null value
COMP .                           COMPANI : 
WELL .                              WELL :
FLD  .                             FIELD : 
CNTY .                            COUNTY : 
STAT .                             STATE : 
DATE .                              DATE : 
SRVC .                   SERVICE COMPANY : 
UWI  .                               UWI : 
~Curve Information
#----------------------------------------------------------------
#MNEM.UNIT              API CODE           CURVE DESCRIPTION
#---------     -------------------------- -----------------------
DEPT .M                                  : 1  DEPTH
DS   .m                                  : BOREHOLE DIAMETER
DT   .                                   : ACOUSTIC dT
GK   .                                   : GAMMA RAYS
MGZ  .                                   : 
MPZ  .Ohmm                               : MICRO POTENTIAL LOG BORE
NGK  .                                   : 
PS   .                                   : SELF POLARIZATION
PZ   .Ohmm                               : POTENTIAL RESISTIVITY BORE
~Parameter Information
#----------------------------------------------------------------
#MNEM.UNIT               VALUE             PARAMETER DESCRIPTION
#---------     -------------------------- -----------------------
EKB  .M                                0 : Elevation,Kelly Bushing
TDL  .M                            -9999 : Total Depth-Logger
RMF  .OHMM                         -9999 : Mud Filtrate Resistivity
MFST .DEGC                         -9999 : Mud Filtrate Sample Temperature
BS   .MM                           -9999 : Bit Size
BHT  .DEGC                         -9999 : Bottom Hole Temp.(Max Temp)
AVST .DEGC                         -9999 : Average Surface Temperature
DFD  .G/S3                         -9999 : Drilling Fluid Density
~Other Information
#----------------------------------------------------------------

#----------------------------------------------------------------
#    Depth        DS        DT        GK       MGZ       MPZ       NGK        PS        PZ
~ASCII Log Data
# ...
 3158.4000     0.128   252.858     2.872     0.628      1.13     1.871   116.511      4.04
 3158.5000     0.128   253.492     2.850     0.628      1.07     1.884   116.772      4.06
 3158.6000     0.129   254.127     2.828     0.628      1.01     1.897   117.033      4.08
 3158.7000     0.129   254.453     2.778     0.628      1.05     1.915   116.368      4.16
 3158.8000     0.129   254.780     2.728     0.628      1.09     1.933   115.702      4.25
 3158.9000     0.129   254.423     2.766     0.628      1.10     1.948   114.863      4.41
 3159.0000     0.129   254.067     2.804     0.628      1.11     1.963   114.023      4.58
 3159.1000     0.130   252.656     3.013     0.635      1.12     1.974   114.834      4.87
 3159.2000     0.131   251.246     3.223     0.641      1.12     1.984   115.645      5.16
 3159.3000     0.132   248.703     3.592     0.577      1.13     1.995   118.122      5.53
 3159.4000     0.134   246.161     3.962     0.514      1.13     2.007   120.599      5.91
 3159.5000     0.133   242.660     4.258     0.508      1.18     2.028   122.831      6.19
 3159.6000     0.132   239.160     4.554     0.503      1.23     2.049   125.063      6.47
 3159.7000     0.131   235.682     4.453     0.575      1.17     2.079   125.899      6.59
 3159.8000     0.130   232.204     4.352     0.646      1.11     2.109   126.735      6.71
 3159.9000     0.130   229.234     3.977     0.604      1.12     2.144   125.336      6.72
 3160.0000     0.129   226.265     3.602     0.562      1.13     2.179   123.937      6.72
 3160.1000     0.129   224.489     3.341     0.516      1.11     2.206   119.873      6.70
 3160.2000     0.129   222.713     3.080     0.470      1.09     2.233   115.809      6.68
 3160.3000     0.129   224.220     3.121     0.477      1.03     2.250   111.469      6.68
 3160.4000     0.129   225.728     3.161     0.484      0.97     2.266   107.129      6.67
 3160.5000     0.129   229.311     3.490     0.514      1.00     2.301   105.204      6.74
 3160.6000     0.129   232.894     3.818     0.544      1.04     2.337   103.280      6.82
 3160.7000     0.130   233.835     4.373     0.579      1.04     2.399   102.504      7.12
 3160.8000     0.131   234.777     4.928     0.613      1.05     2.461   101.728      7.42
 3160.9000     0.132   232.469     5.348     0.625      1.15     2.536   101.272      7.96
 3161.0000     0.134   230.161     5.768     0.638      1.26     2.612   100.817      8.50
 3161.1000     0.133   226.362     5.658     0.773      1.47     2.704   100.975      9.18
 3161.2000     0.132   222.563     5.548     0.907      1.68     2.796   101.132      9.86
 3161.3000     0.132   217.134     5.100     1.059      3.55     2.895   101.247     10.65
 3161.4000     0.131   211.705     4.652     1.210      5.42     2.993   101.361     11.43
 3161.5000     0.131   205.384     4.303     1.108      7.64     3.069   101.456     12.38
 3161.6000     0.131   199.063     3.954     1.006      9.87     3.144   101.551     13.32
 3161.7000     0.131   193.708     3.748     1.072      6.82     3.188   101.699     14.22
 3161.8000     0.131   188.352     3.542     1.138      3.77     3.232   101.847     15.12
 3161.9000     0.131   185.383     3.340     1.559      6.49     3.261   102.061     15.74
 3162.0000     0.131   182.413     3.138     1.979      9.22     3.291   102.275     16.36
 3162.1000     0.130   180.546     2.985     1.948      9.54     3.297   102.240     16.74
 3162.2000     0.130   178.680     2.833     1.918      9.86     3.304   102.205     17.12
 3162.3000     0.130   177.414     2.819     1.887      9.85     3.266   102.281     17.13
 3162.4000     0.130   176.149     2.805     1.856      9.85     3.227   102.356     17.13
 3162.5000     0.130   176.177     2.899     1.982      9.85     3.160   103.123     16.68
 3162.6000     0.130   176.206     2.993     2.109      9.85     3.093   103.890     16.24
 3162.7000     0.130   177.424     3.088     1.658      9.85     3.010   105.656     15.63
 3162.8000     0.130   178.642     3.182     1.208      9.84     2.927   107.423     15.02
 3162.9000     0.130   181.249     3.193     0.903      9.84     2.837   109.930     14.39
 3163.0000     0.131   183.856     3.204     0.598      9.83     2.746   112.438     13.75
 3163.1000     0.131   187.434     3.138     0.577      6.28     2.664   115.006     13.02
 3163.2000     0.131   191.012     3.071     0.556      2.74     2.581   117.574     12.29
 3163.3000     0.130   194.340     2.980     0.537      1.94     2.517   118.634     11.57
 3163.4000     0.130   197.669     2.889     0.518      1.15     2.454   119.695     10.84
 3163.5000     0.129   200.295     2.826     0.599      1.42     2.407   118.693     10.28
 3163.6000     0.128   202.921     2.764     0.679      1.69     2.360   117.690      9.73
 3163.7000     0.128   205.458     2.803     0.684      1.85     2.326   116.489      9.31
 3163.8000     0.128   207.994     2.843     0.689      2.00     2.292   115.288      8.90
 3163.9000     0.128   210.671     2.997     0.658      2.00     2.253   116.183      8.56
 3164.0000     0.129   213.348     3.152     0.627      1.99     2.213   117.078      8.22
 3164.1000     0.130   216.029     3.432     0.627      1.61     2.174   120.086      7.90
 3164.2000     0.130   218.709     3.712     0.627      1.22     2.135   123.093      7.57
 3164.3000     0.130   221.290     4.059     0.637      1.25     2.114   125.756      7.22
 3164.4000     0.131   223.871     4.407     0.648      1.27     2.092   128.419      6.86
 3164.5000     0.131   226.350     4.557     0.640      2.10     2.079   130.069      6.57
 3164.6000     0.131   228.828     4.707     0.631      2.93     2.067   131.718      6.27
 3164.7000     0.132   231.137     4.533     0.589      2.35     2.059   132.734      6.07
 3164.8000     0.132   233.446     4.359     0.546      1.77     2.052   133.751      5.86
 3164.9000     0.131   235.397     4.045     0.523      1.50     2.051   134.175      5.68
 3165.0000     0.130   237.349     3.731     0.501      1.24     2.050   134.599      5.50
 3165.1000     0.129   239.057     3.489     0.501      1.13     2.064   134.764      5.35
 3165.2000     0.128   240.765     3.247     0.501      1.01     2.078   134.930      5.20
 3165.3000     0.128   241.873     3.131     0.528      0.94     2.099   134.329      5.14
 3165.4000     0.128   242.981     3.015     0.554      0.88     2.120   133.728      5.09
 3165.5000     0.129   243.235     3.021     0.554      1.00     2.136   132.156      5.14
 3165.6000     0.130   243.489     3.027     0.554      1.11     2.153   130.585      5.19
 3165.7000     0.132   243.104     3.153     0.527      0.98     2.151   127.910      5.26
 3165.8000     0.133   242.720     3.279     0.500      0.84     2.148   125.234      5.33
 3165.9000     0.134   242.976     3.471     0.532      1.00     2.133   120.784      5.35
 3166.0000     0.136   243.232     3.664     0.564      1.17     2.117   116.334      5.36
 3166.1000     0.136   244.452     3.906     0.595      1.15     2.095   111.161      5.38
 3166.2000     0.136   245.673     4.148     0.626      1.13     2.074   105.988      5.39
 3166.3000     0.134   247.193     4.560     0.606      1.56     2.051   101.928      5.51
 3166.4000     0.132   248.713     4.972     0.586      1.98     2.028    97.869      5.63
 3166.5000     0.132   250.821     5.586     0.656      1.62     2.007    97.098      5.80
 3166.6000     0.131   252.929     6.200     0.726      1.26     1.985    96.326      5.97
 3166.7000     0.132   254.987     6.910     0.714      2.69     1.964    98.216      6.18
 3166.8000     0.134   257.044     7.621     0.702      4.12     1.943   100.107      6.40
 3166.9000     0.138   257.531     8.084     0.666      4.97     1.925    99.828      6.52
 3167.0000     0.142   258.019     8.547     0.630      5.81     1.907    99.549      6.64
 3167.1000     0.141   257.521     8.355     0.693      4.65     1.905    97.357      6.61
